{
"type": "FeatureCollection",
"name": "mines_centroids_final",
"crs": { "type": "name", "properties": { "name": "urn:ogc:def:crs:OGC:1.3:CRS84" } },
"features": [
{ "type": "Feature", "properties": { "mine_id": 0, "state": "Madhya Pradesh", "district": "Sidhi", "subdistrict": "Sidhi", "display_name": "Mine 0 (Sidhi, Sidhi, Madhya Pradesh)" }, "geometry": { "type": "Point", "coordinates": [ 81.408063852200002, 24.378965248099998 ] } },
{ "type": "Feature", "properties": { "mine_id": 1, "state": "Chhattisgarh", "district": "Rajnandgaon", "subdistrict": "Raj Nandgaon", "display_name": "Mine 1 (Raj Nandgaon, Rajnandgaon, Chhattisgarh)" }, "geometry": { "type": "Point", "coordinates": [ 81.155641919499999, 21.195405195300001 ] } },
{ "type": "Feature", "properties": { "mine_id": 2, "state": "Madhya Pradesh", "district": "Damoh", "subdistrict": "Hatta", "display_name": "Mine 2 (Hatta, Damoh, Madhya Pradesh)" }, "geometry": { "type": "Point", "coordinates": [ 79.398256014899999, 24.016263916 ] } },
{ "type": "Feature", "properties": { "mine_id": 3, "state": "Maharashtra", "district": "Chandrapur", "subdistrict": "Mul", "display_name": "Mine 3 (Mul, Chandrapur, Maharashtra)" }, "geometry": { "type": "Point", "coordinates": [ 79.918548790100004, 20.106376198100001 ] } },
{ "type": "Feature", "properties": { "mine_id": 4, "state": "Madhya Pradesh", "district": "Balaghat", "subdistrict": "Waraseoni", "display_name": "Mine 4 (Waraseoni, Balaghat, Madhya Pradesh)" }, "geometry": { "type": "Point", "coordinates": [ 79.732874322800001, 21.666387011699999 ] } },
{ "type": "Feature", "properties": { "mine_id": 5, "state": "Madhya Pradesh", "district": "Anuppur", "subdistrict": "Anuppur", "display_name": "Mine 5 (Anuppur, Anuppur, Madhya Pradesh)" }, "geometry": { "type": "Point", "coordinates": [ 82.059901875, 23.159262577100002 ] } },
{ "type": "Feature", "properties": { "mine_id": 6, "state": "Madhya Pradesh", "district": "Damoh", "subdistrict": "Damoh", "display_name": "Mine 6 (Damoh, Damoh, Madhya Pradesh)" }, "geometry": { "type": "Point", "coordinates": [ 79.410161090299994, 24.034004543599998 ] } },
{ "type": "Feature", "properties": { "mine_id": 7, "state": "Chhattisgarh", "district": "Korba", "subdistrict": "Katghora", "display_name": "Mine 7 (Katghora, Korba, Chhattisgarh)" }, "geometry": { "type": "Point", "coordinates": [ 82.526224584199994, 22.2961759439 ] } },
{ "type": "Feature", "properties": { "mine_id": 8, "state": "Chhattisgarh", "district": "Koriya", "subdistrict": "Manendragarh", "display_name": "Mine 8 (Manendragarh, Koriya, Chhattisgarh)" }, "geometry": { "type": "Point", "coordinates": [ 82.365968971499996, 23.130854922499999 ] } },
{ "type": "Feature", "properties": { "mine_id": 9, "state": "Maharashtra", "district": "Bhandara", "subdistrict": "Sakoli", "display_name": "Mine 9 (Sakoli, Bhandara, Maharashtra)" }, "geometry": { "type": "Point", "coordinates": [ 79.869990039900003, 21.045362871199998 ] } },
{ "type": "Feature", "properties": { "mine_id": 10, "state": "Madhya Pradesh", "district": "Balaghat", "subdistrict": "Waraseoni", "display_name": "Mine 10 (Waraseoni, Balaghat, Madhya Pradesh)" }, "geometry": { "type": "Point", "coordinates": [ 79.610646816200003, 21.698099533400001 ] } },
{ "type": "Feature", "properties": { "mine_id": 11, "state": "Madhya Pradesh", "district": "Balaghat", "subdistrict": "Waraseoni", "display_name": "Mine 11 (Waraseoni, Balaghat, Madhya Pradesh)" }, "geometry": { "type": "Point", "coordinates": [ 79.614200546099994, 21.669594843399999 ] } },
{ "type": "Feature", "properties": { "mine_id": 12, "state": "Madhya Pradesh", "district": "Katni", "subdistrict": "Sihora", "display_name": "Mine 12 (Sihora, Katni, Madhya Pradesh)" }, "geometry": { "type": "Point", "coordinates": [ 80.068387138700004, 23.511061359700001 ] } },
{ "type": "Feature", "properties": { "mine_id": 13, "state": "Chhattisgarh", "district": "Janjgir-Champa", "subdistrict": "Janjgir", "display_name": "Mine 13 (Janjgir, Janjgir-Champa, Chhattisgarh)" }, "geometry": { "type": "Point", "coordinates": [ 82.3285998546, 21.9568077321 ] } },
{ "type": "Feature", "properties": { "mine_id": 14, "state": "Maharashtra", "district": "Bhandara", "subdistrict": "Bhandara", "display_name": "Mine 14 (Bhandara, Bhandara, Maharashtra)" }, "geometry": { "type": "Point", "coordinates": [ 79.6550139788, 21.034907472 ] } },
{ "type": "Feature", "properties": { "mine_id": 15, "state": "Maharashtra", "district": "Bhandara", "subdistrict": "Mohari", "display_name": "Mine 15 (Mohari, Bhandara, Maharashtra)" }, "geometry": { "type": "Point", "coordinates": [ 79.628731465900003, 21.228778934299999 ] } },
{ "type": "Feature", "properties": { "mine_id": 16, "state": "Maharashtra", "district": "Bhandara", "subdistrict": "Tumsar", "display_name": "Mine 16 (Tumsar, Bhandara, Maharashtra)" }, "geometry": { "type": "Point", "coordinates": [ 79.698007919, 21.4321429809 ] } },
{ "type": "Feature", "properties": { "mine_id": 17, "state": "Madhya Pradesh", "district": "Seoni", "subdistrict": "Seoni", "display_name": "Mine 17 (Seoni, Seoni, Madhya Pradesh)" }, "geometry": { "type": "Point", "coordinates": [ 79.558095071400004, 21.636241028400001 ] } },
{ "type": "Feature", "properties": { "mine_id": 18, "state": "Madhya Pradesh", "district": "Seoni", "subdistrict": "Seoni", "display_name": "Mine 18 (Seoni, Seoni, Madhya Pradesh)" }, "geometry": { "type": "Point", "coordinates": [ 79.560475925600002, 21.6367837395 ] } },
{ "type": "Feature", "properties": { "mine_id": 19, "state": "Madhya Pradesh", "district": "Balaghat", "subdistrict": "Waraseoni", "display_name": "Mine 19 (Waraseoni, Balaghat, Madhya Pradesh)" }, "geometry": { "type": "Point", "coordinates": [ 79.823921045899993, 21.7580484713 ] } },
{ "type": "Feature", "properties": { "mine_id": 20, "state": "Madhya Pradesh", "district": "Balaghat", "subdistrict": "Waraseoni", "display_name": "Mine 20 (Waraseoni, Balaghat, Madhya Pradesh)" }, "geometry": { "type": "Point", "coordinates": [ 79.774282079200006, 21.684777913600001 ] } },
{ "type": "Feature", "properties": { "mine_id": 21, "state": "Madhya Pradesh", "district": "Balaghat", "subdistrict": "Waraseoni", "display_name": "Mine 21 (Waraseoni, Balaghat, Madhya Pradesh)" }, "geometry": { "type": "Point", "coordinates": [ 79.8046056158, 21.634108810299999 ] } },
{ "type": "Feature", "properties": { "mine_id": 22, "state": "Madhya Pradesh", "district": "Balaghat", "subdistrict": "Waraseoni", "display_name": "Mine 22 (Waraseoni, Balaghat, Madhya Pradesh)" }, "geometry": { "type": "Point", "coordinates": [ 80.011892223900006, 21.906105822600001 ] } },
{ "type": "Feature", "properties": { "mine_id": 23, "state": "Madhya Pradesh", "district": "Balaghat", "subdistrict": "Waraseoni", "display_name": "Mine 23 (Waraseoni, Balaghat, Madhya Pradesh)" }, "geometry": { "type": "Point", "coordinates": [ 80.100393166100005, 21.798801788199999 ] } },
{ "type": "Feature", "properties": { "mine_id": 24, "state": "Madhya Pradesh", "district": "Balaghat", "subdistrict": "Waraseoni", "display_name": "Mine 24 (Waraseoni, Balaghat, Madhya Pradesh)" }, "geometry": { "type": "Point", "coordinates": [ 80.1258275494, 21.8008475293 ] } },
{ "type": "Feature", "properties": { "mine_id": 25, "state": "Maharashtra", "district": "Chandrapur", "subdistrict": "Mul", "display_name": "Mine 25 (Mul, Chandrapur, Maharashtra)" }, "geometry": { "type": "Point", "coordinates": [ 79.905880216599996, 20.0954316322 ] } },
{ "type": "Feature", "properties": { "mine_id": 26, "state": "Madhya Pradesh", "district": "Anuppur", "subdistrict": "Anuppur", "display_name": "Mine 26 (Anuppur, Anuppur, Madhya Pradesh)" }, "geometry": { "type": "Point", "coordinates": [ 82.092279644499996, 23.258190240499999 ] } },
{ "type": "Feature", "properties": { "mine_id": 27, "state": "Maharashtra", "district": "Nagpur", "subdistrict": "Umred", "display_name": "Mine 27 (Umred, Nagpur, Maharashtra)" }, "geometry": { "type": "Point", "coordinates": [ 79.294178050100001, 20.793272877 ] } },
{ "type": "Feature", "properties": { "mine_id": 28, "state": "Maharashtra", "district": "Bhandara", "subdistrict": "Pawni", "display_name": "Mine 28 (Pawni, Bhandara, Maharashtra)" }, "geometry": { "type": "Point", "coordinates": [ 79.705480492500001, 20.945896508299999 ] } },
{ "type": "Feature", "properties": { "mine_id": 29, "state": "Madhya Pradesh", "district": "Anuppur", "subdistrict": "Anuppur", "display_name": "Mine 29 (Anuppur, Anuppur, Madhya Pradesh)" }, "geometry": { "type": "Point", "coordinates": [ 82.142007783899999, 23.2428646362 ] } },
{ "type": "Feature", "properties": { "mine_id": 30, "state": "Madhya Pradesh", "district": "Anuppur", "subdistrict": "Anuppur", "display_name": "Mine 30 (Anuppur, Anuppur, Madhya Pradesh)" }, "geometry": { "type": "Point", "coordinates": [ 82.149089275099996, 23.2445837438 ] } },
{ "type": "Feature", "properties": { "mine_id": 31, "state": "Madhya Pradesh", "district": "Panna", "subdistrict": "Panna", "display_name": "Mine 31 (Panna, Panna, Madhya Pradesh)" }, "geometry": { "type": "Point", "coordinates": [ 80.384856804799995, 24.381322175299999 ] } },
{ "type": "Feature", "properties": { "mine_id": 32, "state": "Madhya Pradesh", "district": "Katni", "subdistrict": "Murwara", "display_name": "Mine 32 (Murwara, Katni, Madhya Pradesh)" }, "geometry": { "type": "Point", "coordinates": [ 80.455622669199997, 23.672898201100001 ] } },
{ "type": "Feature", "properties": { "mine_id": 33, "state": "Madhya Pradesh", "district": "Katni", "subdistrict": "Sihora", "display_name": "Mine 33 (Sihora, Katni, Madhya Pradesh)" }, "geometry": { "type": "Point", "coordinates": [ 80.321097282300002, 23.6673360335 ] } },
{ "type": "Feature", "properties": { "mine_id": 34, "state": "Madhya Pradesh", "district": "Katni", "subdistrict": "Murwara", "display_name": "Mine 34 (Murwara, Katni, Madhya Pradesh)" }, "geometry": { "type": "Point", "coordinates": [ 80.550603587599994, 23.895852541499998 ] } },
{ "type": "Feature", "properties": { "mine_id": 35, "state": "Madhya Pradesh", "district": "Satna", "subdistrict": "Maihar", "display_name": "Mine 35 (Maihar, Satna, Madhya Pradesh)" }, "geometry": { "type": "Point", "coordinates": [ 80.847012032099997, 24.2687826429 ] } },
{ "type": "Feature", "properties": { "mine_id": 36, "state": "Madhya Pradesh", "district": "Satna", "subdistrict": "Maihar", "display_name": "Mine 36 (Maihar, Satna, Madhya Pradesh)" }, "geometry": { "type": "Point", "coordinates": [ 80.892769049799995, 24.259840822 ] } },
{ "type": "Feature", "properties": { "mine_id": 37, "state": "Chhattisgarh", "district": "Bilaspur", "subdistrict": "Takhatpur", "display_name": "Mine 37 (Takhatpur, Bilaspur, Chhattisgarh)" }, "geometry": { "type": "Point", "coordinates": [ 81.801317207099999, 22.245366028500001 ] } },
{ "type": "Feature", "properties": { "mine_id": 38, "state": "Chhattisgarh", "district": "Rajnandgaon", "subdistrict": "Raj Nandgaon", "display_name": "Mine 38 (Raj Nandgaon, Rajnandgaon, Chhattisgarh)" }, "geometry": { "type": "Point", "coordinates": [ 80.990434030100005, 21.300594044 ] } },
{ "type": "Feature", "properties": { "mine_id": 39, "state": "Chhattisgarh", "district": "Kabeerdham", "subdistrict": "Kawardha", "display_name": "Mine 39 (Kawardha, Kabeerdham, Chhattisgarh)" }, "geometry": { "type": "Point", "coordinates": [ 81.287832077499999, 22.212228307 ] } },
{ "type": "Feature", "properties": { "mine_id": 40, "state": "Madhya Pradesh", "district": "Satna", "subdistrict": "Nagod", "display_name": "Mine 40 (Nagod, Satna, Madhya Pradesh)" }, "geometry": { "type": "Point", "coordinates": [ 80.891014423200005, 24.441700686 ] } },
{ "type": "Feature", "properties": { "mine_id": 41, "state": "Madhya Pradesh", "district": "Katni", "subdistrict": "Sihora", "display_name": "Mine 41 (Sihora, Katni, Madhya Pradesh)" }, "geometry": { "type": "Point", "coordinates": [ 80.179076668500002, 23.622009182399999 ] } },
{ "type": "Feature", "properties": { "mine_id": 42, "state": "Madhya Pradesh", "district": "Katni", "subdistrict": "Sihora", "display_name": "Mine 42 (Sihora, Katni, Madhya Pradesh)" }, "geometry": { "type": "Point", "coordinates": [ 80.123149375799997, 23.572340694800001 ] } },
{ "type": "Feature", "properties": { "mine_id": 43, "state": "Madhya Pradesh", "district": "Rewa", "subdistrict": "Rewa", "display_name": "Mine 43 (Rewa, Rewa, Madhya Pradesh)" }, "geometry": { "type": "Point", "coordinates": [ 81.392213577299998, 24.374803741 ] } },
{ "type": "Feature", "properties": { "mine_id": 44, "state": "Madhya Pradesh", "district": "Satna", "subdistrict": "Amarpatan", "display_name": "Mine 44 (Amarpatan, Satna, Madhya Pradesh)" }, "geometry": { "type": "Point", "coordinates": [ 81.203773292700006, 24.453071318199999 ] } },
{ "type": "Feature", "properties": { "mine_id": 45, "state": "Madhya Pradesh", "district": "Sidhi", "subdistrict": "Sidhi", "display_name": "Mine 45 (Sidhi, Sidhi, Madhya Pradesh)" }, "geometry": { "type": "Point", "coordinates": [ 81.396824544300003, 24.354804960399999 ] } },
{ "type": "Feature", "properties": { "mine_id": 46, "state": "Madhya Pradesh", "district": "Satna", "subdistrict": "Maihar", "display_name": "Mine 46 (Maihar, Satna, Madhya Pradesh)" }, "geometry": { "type": "Point", "coordinates": [ 80.905964117500005, 24.263969865100002 ] } },
{ "type": "Feature", "properties": { "mine_id": 47, "state": "Maharashtra", "district": "Chandrapur", "subdistrict": "Chimur", "display_name": "Mine 47 (Chimur, Chandrapur, Maharashtra)" }, "geometry": { "type": "Point", "coordinates": [ 79.470026886699998, 20.5237757391 ] } },
{ "type": "Feature", "properties": { "mine_id": 48, "state": "Madhya Pradesh", "district": "Katni", "subdistrict": "Murwara", "display_name": "Mine 48 (Murwara, Katni, Madhya Pradesh)" }, "geometry": { "type": "Point", "coordinates": [ 80.857246737, 23.991275594 ] } },
{ "type": "Feature", "properties": { "mine_id": 49, "state": "Madhya Pradesh", "district": "Satna", "subdistrict": "Amarpatan", "display_name": "Mine 49 (Amarpatan, Satna, Madhya Pradesh)" }, "geometry": { "type": "Point", "coordinates": [ 81.274716372, 24.304339787699998 ] } },
{ "type": "Feature", "properties": { "mine_id": 50, "state": "Chhattisgarh", "district": "Rajnandgaon", "subdistrict": "Raj Nandgaon", "display_name": "Mine 50 (Raj Nandgaon, Rajnandgaon, Chhattisgarh)" }, "geometry": { "type": "Point", "coordinates": [ 81.009268524, 21.3045454218 ] } },
{ "type": "Feature", "properties": { "mine_id": 51, "state": "Chhattisgarh", "district": "Rajnandgaon", "subdistrict": "Khairagarh", "display_name": "Mine 51 (Khairagarh, Rajnandgaon, Chhattisgarh)" }, "geometry": { "type": "Point", "coordinates": [ 80.9536531989, 21.380438249200001 ] } },
{ "type": "Feature", "properties": { "mine_id": 52, "state": "Chhattisgarh", "district": "Rajnandgaon", "subdistrict": "Khairagarh", "display_name": "Mine 52 (Khairagarh, Rajnandgaon, Chhattisgarh)" }, "geometry": { "type": "Point", "coordinates": [ 80.980696091400006, 21.330929616300001 ] } },
{ "type": "Feature", "properties": { "mine_id": 53, "state": "Chhattisgarh", "district": "Rajnandgaon", "subdistrict": "Khairagarh", "display_name": "Mine 53 (Khairagarh, Rajnandgaon, Chhattisgarh)" }, "geometry": { "type": "Point", "coordinates": [ 80.968002887799997, 21.339661855 ] } },
{ "type": "Feature", "properties": { "mine_id": 54, "state": "Maharashtra", "district": "Bhandara", "subdistrict": "Tumsar", "display_name": "Mine 54 (Tumsar, Bhandara, Maharashtra)" }, "geometry": { "type": "Point", "coordinates": [ 79.752294058399997, 21.539847310700001 ] } },
{ "type": "Feature", "properties": { "mine_id": 55, "state": "Madhya Pradesh", "district": "Balaghat", "subdistrict": "Waraseoni", "display_name": "Mine 55 (Waraseoni, Balaghat, Madhya Pradesh)" }, "geometry": { "type": "Point", "coordinates": [ 79.937938088799996, 21.857058664699998 ] } },
{ "type": "Feature", "properties": { "mine_id": 56, "state": "Madhya Pradesh", "district": "Balaghat", "subdistrict": "Waraseoni", "display_name": "Mine 56 (Waraseoni, Balaghat, Madhya Pradesh)" }, "geometry": { "type": "Point", "coordinates": [ 79.952394889199994, 21.831476927600001 ] } },
{ "type": "Feature", "properties": { "mine_id": 57, "state": "Madhya Pradesh", "district": "Balaghat", "subdistrict": "Waraseoni", "display_name": "Mine 57 (Waraseoni, Balaghat, Madhya Pradesh)" }, "geometry": { "type": "Point", "coordinates": [ 79.662636495399994, 21.689471853200001 ] } },
{ "type": "Feature", "properties": { "mine_id": 58, "state": "Madhya Pradesh", "district": "Balaghat", "subdistrict": "Waraseoni", "display_name": "Mine 58 (Waraseoni, Balaghat, Madhya Pradesh)" }, "geometry": { "type": "Point", "coordinates": [ 79.607696369, 21.6717085268 ] } },
{ "type": "Feature", "properties": { "mine_id": 59, "state": "Maharashtra", "district": "Nagpur", "subdistrict": "Ramtek", "display_name": "Mine 59 (Ramtek, Nagpur, Maharashtra)" }, "geometry": { "type": "Point", "coordinates": [ 79.307480512300003, 21.525441879 ] } },
{ "type": "Feature", "properties": { "mine_id": 60, "state": "Madhya Pradesh", "district": "Katni", "subdistrict": "Sihora", "display_name": "Mine 60 (Sihora, Katni, Madhya Pradesh)" }, "geometry": { "type": "Point", "coordinates": [ 80.035929160699993, 23.5682930384 ] } },
{ "type": "Feature", "properties": { "mine_id": 61, "state": "Madhya Pradesh", "district": "Jabalpur", "subdistrict": "Jabalpur", "display_name": "Mine 61 (Jabalpur, Jabalpur, Madhya Pradesh)" }, "geometry": { "type": "Point", "coordinates": [ 79.839373206700003, 23.094831092900002 ] } },
{ "type": "Feature", "properties": { "mine_id": 62, "state": "Madhya Pradesh", "district": "Jabalpur", "subdistrict": "Jabalpur", "display_name": "Mine 62 (Jabalpur, Jabalpur, Madhya Pradesh)" }, "geometry": { "type": "Point", "coordinates": [ 79.847799922199997, 23.084962275 ] } },
{ "type": "Feature", "properties": { "mine_id": 63, "state": "Madhya Pradesh", "district": "Katni", "subdistrict": "Sihora", "display_name": "Mine 63 (Sihora, Katni, Madhya Pradesh)" }, "geometry": { "type": "Point", "coordinates": [ 80.190033342099994, 23.526096710499999 ] } },
{ "type": "Feature", "properties": { "mine_id": 64, "state": "Madhya Pradesh", "district": "Katni", "subdistrict": "Sihora", "display_name": "Mine 64 (Sihora, Katni, Madhya Pradesh)" }, "geometry": { "type": "Point", "coordinates": [ 80.146521486099999, 23.491367047400001 ] } },
{ "type": "Feature", "properties": { "mine_id": 65, "state": "Chhattisgarh", "district": "Bilaspur", "subdistrict": "Bilaspur", "display_name": "Mine 65 (Bilaspur, Bilaspur, Chhattisgarh)" }, "geometry": { "type": "Point", "coordinates": [ 82.198725364200001, 21.899427512599999 ] } },
{ "type": "Feature", "properties": { "mine_id": 66, "state": "Chhattisgarh", "district": "Bilaspur", "subdistrict": "Bilaspur", "display_name": "Mine 66 (Bilaspur, Bilaspur, Chhattisgarh)" }, "geometry": { "type": "Point", "coordinates": [ 82.028329005800003, 21.9740803577 ] } },
{ "type": "Feature", "properties": { "mine_id": 67, "state": "Chhattisgarh", "district": "Bilaspur", "subdistrict": "Bilaspur", "display_name": "Mine 67 (Bilaspur, Bilaspur, Chhattisgarh)" }, "geometry": { "type": "Point", "coordinates": [ 82.063516352600004, 21.993648888599999 ] } },
{ "type": "Feature", "properties": { "mine_id": 68, "state": "Chhattisgarh", "district": "Bilaspur", "subdistrict": "Takhatpur", "display_name": "Mine 68 (Takhatpur, Bilaspur, Chhattisgarh)" }, "geometry": { "type": "Point", "coordinates": [ 81.797486547800005, 22.250014271800001 ] } },
{ "type": "Feature", "properties": { "mine_id": 69, "state": "Maharashtra", "district": "Bhandara", "subdistrict": "Tumsar", "display_name": "Mine 69 (Tumsar, Bhandara, Maharashtra)" }, "geometry": { "type": "Point", "coordinates": [ 79.756285781299994, 21.434275414799998 ] } },
{ "type": "Feature", "properties": { "mine_id": 70, "state": "Maharashtra", "district": "Nagpur", "subdistrict": "Ramtek", "display_name": "Mine 70 (Ramtek, Nagpur, Maharashtra)" }, "geometry": { "type": "Point", "coordinates": [ 79.442851432, 21.658239278300002 ] } },
{ "type": "Feature", "properties": { "mine_id": 71, "state": "Madhya Pradesh", "district": "Balaghat", "subdistrict": "Waraseoni", "display_name": "Mine 71 (Waraseoni, Balaghat, Madhya Pradesh)" }, "geometry": { "type": "Point", "coordinates": [ 79.883714731, 21.753035088600001 ] } },
{ "type": "Feature", "properties": { "mine_id": 72, "state": "Madhya Pradesh", "district": "Balaghat", "subdistrict": "Waraseoni", "display_name": "Mine 72 (Waraseoni, Balaghat, Madhya Pradesh)" }, "geometry": { "type": "Point", "coordinates": [ 79.841955943499997, 21.6277678967 ] } },
{ "type": "Feature", "properties": { "mine_id": 73, "state": "Madhya Pradesh", "district": "Balaghat", "subdistrict": "Waraseoni", "display_name": "Mine 73 (Waraseoni, Balaghat, Madhya Pradesh)" }, "geometry": { "type": "Point", "coordinates": [ 79.84176664, 21.6325674902 ] } },
{ "type": "Feature", "properties": { "mine_id": 74, "state": "Madhya Pradesh", "district": "Singrauli", "subdistrict": "Devsar", "display_name": "Mine 74 (Devsar, Singrauli, Madhya Pradesh)" }, "geometry": { "type": "Point", "coordinates": [ 81.993060967700004, 24.087524327899999 ] } },
{ "type": "Feature", "properties": { "mine_id": 75, "state": "Maharashtra", "district": "Nagpur", "subdistrict": "Ramtek", "display_name": "Mine 75 (Ramtek, Nagpur, Maharashtra)" }, "geometry": { "type": "Point", "coordinates": [ 79.291152494499997, 21.340450649099999 ] } },
{ "type": "Feature", "properties": { "mine_id": 76, "state": "Madhya Pradesh", "district": "Katni", "subdistrict": "Sihora", "display_name": "Mine 76 (Sihora, Katni, Madhya Pradesh)" }, "geometry": { "type": "Point", "coordinates": [ 80.148879993899996, 23.5806303492 ] } },
{ "type": "Feature", "properties": { "mine_id": 77, "state": "Maharashtra", "district": "Nagpur", "subdistrict": "Umred", "display_name": "Mine 77 (Umred, Nagpur, Maharashtra)" }, "geometry": { "type": "Point", "coordinates": [ 79.306578056600003, 20.785030532499999 ] } },
{ "type": "Feature", "properties": { "mine_id": 78, "state": "Maharashtra", "district": "Bhandara", "subdistrict": "Pawni", "display_name": "Mine 78 (Pawni, Bhandara, Maharashtra)" }, "geometry": { "type": "Point", "coordinates": [ 79.711671240100003, 20.953946660300002 ] } },
{ "type": "Feature", "properties": { "mine_id": 79, "state": "Maharashtra", "district": "Bhandara", "subdistrict": "Sakoli", "display_name": "Mine 79 (Sakoli, Bhandara, Maharashtra)" }, "geometry": { "type": "Point", "coordinates": [ 79.857620415400007, 21.031368662 ] } },
{ "type": "Feature", "properties": { "mine_id": 80, "state": "Madhya Pradesh", "district": "Rewa", "subdistrict": "Rewa", "display_name": "Mine 80 (Rewa, Rewa, Madhya Pradesh)" }, "geometry": { "type": "Point", "coordinates": [ 81.187524005699998, 24.615781713299999 ] } },
{ "type": "Feature", "properties": { "mine_id": 81, "state": "Madhya Pradesh", "district": "Panna", "subdistrict": "Panna", "display_name": "Mine 81 (Panna, Panna, Madhya Pradesh)" }, "geometry": { "type": "Point", "coordinates": [ 80.433611426599995, 24.438134441399999 ] } },
{ "type": "Feature", "properties": { "mine_id": 82, "state": "Madhya Pradesh", "district": "Satna", "subdistrict": "Satna", "display_name": "Mine 82 (Satna, Satna, Madhya Pradesh)" }, "geometry": { "type": "Point", "coordinates": [ 80.946277791599996, 24.870933675500002 ] } },
{ "type": "Feature", "properties": { "mine_id": 83, "state": "Madhya Pradesh", "district": "Satna", "subdistrict": "Nagod", "display_name": "Mine 83 (Nagod, Satna, Madhya Pradesh)" }, "geometry": { "type": "Point", "coordinates": [ 80.467164479800005, 24.435927400200001 ] } },
{ "type": "Feature", "properties": { "mine_id": 84, "state": "Madhya Pradesh", "district": "Rewa", "subdistrict": "Rewa", "display_name": "Mine 84 (Rewa, Rewa, Madhya Pradesh)" }, "geometry": { "type": "Point", "coordinates": [ 81.389923455200005, 24.373848390500001 ] } },
{ "type": "Feature", "properties": { "mine_id": 85, "state": "Chhattisgarh", "district": "Rajnandgaon", "subdistrict": "Raj Nandgaon", "display_name": "Mine 85 (Raj Nandgaon, Rajnandgaon, Chhattisgarh)" }, "geometry": { "type": "Point", "coordinates": [ 80.997454184700004, 21.295550932600001 ] } },
{ "type": "Feature", "properties": { "mine_id": 86, "state": "Madhya Pradesh", "district": "Satna", "subdistrict": "Maihar", "display_name": "Mine 86 (Maihar, Satna, Madhya Pradesh)" }, "geometry": { "type": "Point", "coordinates": [ 80.861649035900001, 24.277582821199999 ] } },
{ "type": "Feature", "properties": { "mine_id": 87, "state": "Madhya Pradesh", "district": "Satna", "subdistrict": "Satna", "display_name": "Mine 87 (Satna, Satna, Madhya Pradesh)" }, "geometry": { "type": "Point", "coordinates": [ 80.890628267599993, 24.629445155399999 ] } },
{ "type": "Feature", "properties": { "mine_id": 88, "state": "Madhya Pradesh", "district": "Shahdol", "subdistrict": "Shahdol", "display_name": "Mine 88 (Shahdol, Shahdol, Madhya Pradesh)" }, "geometry": { "type": "Point", "coordinates": [ 81.554899158799998, 23.179035579099999 ] } },
{ "type": "Feature", "properties": { "mine_id": 89, "state": "Madhya Pradesh", "district": "Shahdol", "subdistrict": "Shahdol", "display_name": "Mine 89 (Shahdol, Shahdol, Madhya Pradesh)" }, "geometry": { "type": "Point", "coordinates": [ 81.607811745700005, 23.204492174599999 ] } },
{ "type": "Feature", "properties": { "mine_id": 90, "state": "Madhya Pradesh", "district": "Satna", "subdistrict": "Maihar", "display_name": "Mine 90 (Maihar, Satna, Madhya Pradesh)" }, "geometry": { "type": "Point", "coordinates": [ 80.788222872099993, 24.135957535100001 ] } },
{ "type": "Feature", "properties": { "mine_id": 91, "state": "Madhya Pradesh", "district": "Satna", "subdistrict": "Maihar", "display_name": "Mine 91 (Maihar, Satna, Madhya Pradesh)" }, "geometry": { "type": "Point", "coordinates": [ 80.808425746500006, 24.150616751400001 ] } },
{ "type": "Feature", "properties": { "mine_id": 92, "state": "Madhya Pradesh", "district": "Katni", "subdistrict": "Murwara", "display_name": "Mine 92 (Murwara, Katni, Madhya Pradesh)" }, "geometry": { "type": "Point", "coordinates": [ 80.621836978700003, 24.0589528199 ] } },
{ "type": "Feature", "properties": { "mine_id": 93, "state": "Madhya Pradesh", "district": "Satna", "subdistrict": "Maihar", "display_name": "Mine 93 (Maihar, Satna, Madhya Pradesh)" }, "geometry": { "type": "Point", "coordinates": [ 80.734412896500004, 24.1138510971 ] } },
{ "type": "Feature", "properties": { "mine_id": 94, "state": "Madhya Pradesh", "district": "Rewa", "subdistrict": "Rewa", "display_name": "Mine 94 (Rewa, Rewa, Madhya Pradesh)" }, "geometry": { "type": "Point", "coordinates": [ 81.181905786900003, 24.620767238900001 ] } },
{ "type": "Feature", "properties": { "mine_id": 95, "state": "Madhya Pradesh", "district": "Katni", "subdistrict": "Murwara", "display_name": "Mine 95 (Murwara, Katni, Madhya Pradesh)" }, "geometry": { "type": "Point", "coordinates": [ 80.538681578099997, 23.7037850677 ] } },
{ "type": "Feature", "properties": { "mine_id": 96, "state": "Madhya Pradesh", "district": "Katni", "subdistrict": "Murwara", "display_name": "Mine 96 (Murwara, Katni, Madhya Pradesh)" }, "geometry": { "type": "Point", "coordinates": [ 80.533176126699999, 23.7063286092 ] } },
{ "type": "Feature", "properties": { "mine_id": 97, "state": "Madhya Pradesh", "district": "Mandla", "subdistrict": "Mandla", "display_name": "Mine 97 (Mandla, Mandla, Madhya Pradesh)" }, "geometry": { "type": "Point", "coordinates": [ 80.444400496599997, 22.469303765100001 ] } },
{ "type": "Feature", "properties": { "mine_id": 98, "state": "Madhya Pradesh", "district": "Mandla", "subdistrict": "Mandla", "display_name": "Mine 98 (Mandla, Mandla, Madhya Pradesh)" }, "geometry": { "type": "Point", "coordinates": [ 80.444501705299999, 22.474282327 ] } },
{ "type": "Feature", "properties": { "mine_id": 99, "state": "Chhattisgarh", "district": "Rajnandgaon", "subdistrict": "Raj Nandgaon", "display_name": "Mine 99 (Raj Nandgaon, Rajnandgaon, Chhattisgarh)" }, "geometry": { "type": "Point", "coordinates": [ 80.832038043699995, 21.054156240099999 ] } },
{ "type": "Feature", "properties": { "mine_id": 100, "state": "Madhya Pradesh", "district": "Satna", "subdistrict": "Amarpatan", "display_name": "Mine 100 (Amarpatan, Satna, Madhya Pradesh)" }, "geometry": { "type": "Point", "coordinates": [ 81.172895220900003, 24.452427934199999 ] } },
{ "type": "Feature", "properties": { "mine_id": 101, "state": "Madhya Pradesh", "district": "Satna", "subdistrict": "Amarpatan", "display_name": "Mine 101 (Amarpatan, Satna, Madhya Pradesh)" }, "geometry": { "type": "Point", "coordinates": [ 81.239612429700003, 24.283555267499999 ] } },
{ "type": "Feature", "properties": { "mine_id": 102, "state": "Madhya Pradesh", "district": "Satna", "subdistrict": "Amarpatan", "display_name": "Mine 102 (Amarpatan, Satna, Madhya Pradesh)" }, "geometry": { "type": "Point", "coordinates": [ 81.292959230899996, 24.307432782799999 ] } },
{ "type": "Feature", "properties": { "mine_id": 103, "state": "Madhya Pradesh", "district": "Sidhi", "subdistrict": "Sidhi", "display_name": "Mine 103 (Sidhi, Sidhi, Madhya Pradesh)" }, "geometry": { "type": "Point", "coordinates": [ 81.400765161, 24.357566623899999 ] } },
{ "type": "Feature", "properties": { "mine_id": 104, "state": "Madhya Pradesh", "district": "Satna", "subdistrict": "Satna", "display_name": "Mine 104 (Satna, Satna, Madhya Pradesh)" }, "geometry": { "type": "Point", "coordinates": [ 80.931254323100006, 24.792839299400001 ] } },
{ "type": "Feature", "properties": { "mine_id": 105, "state": "Madhya Pradesh", "district": "Satna", "subdistrict": "Satna", "display_name": "Mine 105 (Satna, Satna, Madhya Pradesh)" }, "geometry": { "type": "Point", "coordinates": [ 80.9193517609, 24.846726353 ] } },
{ "type": "Feature", "properties": { "mine_id": 106, "state": "Madhya Pradesh", "district": "Satna", "subdistrict": "Satna", "display_name": "Mine 106 (Satna, Satna, Madhya Pradesh)" }, "geometry": { "type": "Point", "coordinates": [ 80.917628683299995, 24.847662822099998 ] } },
{ "type": "Feature", "properties": { "mine_id": 107, "state": "Madhya Pradesh", "district": "Katni", "subdistrict": "Sihora", "display_name": "Mine 107 (Sihora, Katni, Madhya Pradesh)" }, "geometry": { "type": "Point", "coordinates": [ 80.443419193699995, 23.668369444700001 ] } },
{ "type": "Feature", "properties": { "mine_id": 108, "state": "Madhya Pradesh", "district": "Jabalpur", "subdistrict": "Jabalpur", "display_name": "Mine 108 (Jabalpur, Jabalpur, Madhya Pradesh)" }, "geometry": { "type": "Point", "coordinates": [ 80.391336569900005, 23.336827944300001 ] } },
{ "type": "Feature", "properties": { "mine_id": 109, "state": "Madhya Pradesh", "district": "Katni", "subdistrict": "Murwara", "display_name": "Mine 109 (Murwara, Katni, Madhya Pradesh)" }, "geometry": { "type": "Point", "coordinates": [ 80.548006340599997, 23.898688658699999 ] } },
{ "type": "Feature", "properties": { "mine_id": 110, "state": "Madhya Pradesh", "district": "Katni", "subdistrict": "Murwara", "display_name": "Mine 110 (Murwara, Katni, Madhya Pradesh)" }, "geometry": { "type": "Point", "coordinates": [ 80.598605888500003, 23.8669258135 ] } },
{ "type": "Feature", "properties": { "mine_id": 111, "state": "Madhya Pradesh", "district": "Satna", "subdistrict": "Satna", "display_name": "Mine 111 (Satna, Satna, Madhya Pradesh)" }, "geometry": { "type": "Point", "coordinates": [ 80.922323806, 24.8705050453 ] } },
{ "type": "Feature", "properties": { "mine_id": 112, "state": "Madhya Pradesh", "district": "Satna", "subdistrict": "Satna", "display_name": "Mine 112 (Satna, Satna, Madhya Pradesh)" }, "geometry": { "type": "Point", "coordinates": [ 80.943657596400001, 24.870229517799999 ] } },
{ "type": "Feature", "properties": { "mine_id": 113, "state": "Madhya Pradesh", "district": "Satna", "subdistrict": "Satna", "display_name": "Mine 113 (Satna, Satna, Madhya Pradesh)" }, "geometry": { "type": "Point", "coordinates": [ 80.909454780700003, 24.8966393342 ] } },
{ "type": "Feature", "properties": { "mine_id": 114, "state": "Madhya Pradesh", "district": "Satna", "subdistrict": "Satna", "display_name": "Mine 114 (Satna, Satna, Madhya Pradesh)" }, "geometry": { "type": "Point", "coordinates": [ 81.004408530800006, 24.7270407816 ] } },
{ "type": "Feature", "properties": { "mine_id": 115, "state": "Madhya Pradesh", "district": "Satna", "subdistrict": "Satna", "display_name": "Mine 115 (Satna, Satna, Madhya Pradesh)" }, "geometry": { "type": "Point", "coordinates": [ 81.002616331300004, 24.715358288400001 ] } },
{ "type": "Feature", "properties": { "mine_id": 116, "state": "Madhya Pradesh", "district": "Satna", "subdistrict": "Satna", "display_name": "Mine 116 (Satna, Satna, Madhya Pradesh)" }, "geometry": { "type": "Point", "coordinates": [ 81.0090013473, 24.716154126900001 ] } },
{ "type": "Feature", "properties": { "mine_id": 117, "state": "Madhya Pradesh", "district": "Satna", "subdistrict": "Maihar", "display_name": "Mine 117 (Maihar, Satna, Madhya Pradesh)" }, "geometry": { "type": "Point", "coordinates": [ 80.835842399399993, 24.2627285487 ] } },
{ "type": "Feature", "properties": { "mine_id": 118, "state": "Madhya Pradesh", "district": "Satna", "subdistrict": "Maihar", "display_name": "Mine 118 (Maihar, Satna, Madhya Pradesh)" }, "geometry": { "type": "Point", "coordinates": [ 80.888572772100005, 24.305539919600001 ] } },
{ "type": "Feature", "properties": { "mine_id": 119, "state": "Madhya Pradesh", "district": "Satna", "subdistrict": "Maihar", "display_name": "Mine 119 (Maihar, Satna, Madhya Pradesh)" }, "geometry": { "type": "Point", "coordinates": [ 80.906355809700003, 24.2949951473 ] } },
{ "type": "Feature", "properties": { "mine_id": 120, "state": "Chhattisgarh", "district": "Rajnandgaon", "subdistrict": "Raj Nandgaon", "display_name": "Mine 120 (Raj Nandgaon, Rajnandgaon, Chhattisgarh)" }, "geometry": { "type": "Point", "coordinates": [ 81.168468266199994, 21.1875940822 ] } },
{ "type": "Feature", "properties": { "mine_id": 121, "state": "Chhattisgarh", "district": "Rajnandgaon", "subdistrict": "Raj Nandgaon", "display_name": "Mine 121 (Raj Nandgaon, Rajnandgaon, Chhattisgarh)" }, "geometry": { "type": "Point", "coordinates": [ 81.004500194, 21.2950666415 ] } },
{ "type": "Feature", "properties": { "mine_id": 122, "state": "Chhattisgarh", "district": "Rajnandgaon", "subdistrict": "Raj Nandgaon", "display_name": "Mine 122 (Raj Nandgaon, Rajnandgaon, Chhattisgarh)" }, "geometry": { "type": "Point", "coordinates": [ 81.002369660200003, 21.298807420300001 ] } },
{ "type": "Feature", "properties": { "mine_id": 123, "state": "Chhattisgarh", "district": "Rajnandgaon", "subdistrict": "Raj Nandgaon", "display_name": "Mine 123 (Raj Nandgaon, Rajnandgaon, Chhattisgarh)" }, "geometry": { "type": "Point", "coordinates": [ 81.009431271899999, 21.3017235423 ] } },
{ "type": "Feature", "properties": { "mine_id": 124, "state": "Chhattisgarh", "district": "Rajnandgaon", "subdistrict": "Khairagarh", "display_name": "Mine 124 (Khairagarh, Rajnandgaon, Chhattisgarh)" }, "geometry": { "type": "Point", "coordinates": [ 80.974146390100003, 21.3357150002 ] } },
{ "type": "Feature", "properties": { "mine_id": 125, "state": "Chhattisgarh", "district": "Rajnandgaon", "subdistrict": "Khairagarh", "display_name": "Mine 125 (Khairagarh, Rajnandgaon, Chhattisgarh)" }, "geometry": { "type": "Point", "coordinates": [ 80.882931252800006, 21.360045439099999 ] } },
{ "type": "Feature", "properties": { "mine_id": 126, "state": "Chhattisgarh", "district": "Rajnandgaon", "subdistrict": "Raj Nandgaon", "display_name": "Mine 126 (Raj Nandgaon, Rajnandgaon, Chhattisgarh)" }, "geometry": { "type": "Point", "coordinates": [ 80.920200465199997, 20.4422996664 ] } },
{ "type": "Feature", "properties": { "mine_id": 127, "state": "Chhattisgarh", "district": "Rajnandgaon", "subdistrict": "Raj Nandgaon", "display_name": "Mine 127 (Raj Nandgaon, Rajnandgaon, Chhattisgarh)" }, "geometry": { "type": "Point", "coordinates": [ 80.925952978, 20.439449636 ] } },
{ "type": "Feature", "properties": { "mine_id": 128, "state": "Chhattisgarh", "district": "Rajnandgaon", "subdistrict": "Raj Nandgaon", "display_name": "Mine 128 (Raj Nandgaon, Rajnandgaon, Chhattisgarh)" }, "geometry": { "type": "Point", "coordinates": [ 80.887799740899993, 20.485325233699999 ] } },
{ "type": "Feature", "properties": { "mine_id": 129, "state": "Madhya Pradesh", "district": "Sidhi", "subdistrict": "Sidhi", "display_name": "Mine 129 (Sidhi, Sidhi, Madhya Pradesh)" }, "geometry": { "type": "Point", "coordinates": [ 81.496300090700004, 24.348153740899999 ] } },
{ "type": "Feature", "properties": { "mine_id": 130, "state": "Madhya Pradesh", "district": "Satna", "subdistrict": "Satna", "display_name": "Mine 130 (Satna, Satna, Madhya Pradesh)" }, "geometry": { "type": "Point", "coordinates": [ 80.961205024700007, 24.619623159700001 ] } },
{ "type": "Feature", "properties": { "mine_id": 131, "state": "Madhya Pradesh", "district": "Satna", "subdistrict": "Satna", "display_name": "Mine 131 (Satna, Satna, Madhya Pradesh)" }, "geometry": { "type": "Point", "coordinates": [ 80.949149057499994, 24.628044576800001 ] } },
{ "type": "Feature", "properties": { "mine_id": 132, "state": "Madhya Pradesh", "district": "Satna", "subdistrict": "Satna", "display_name": "Mine 132 (Satna, Satna, Madhya Pradesh)" }, "geometry": { "type": "Point", "coordinates": [ 80.955783405, 24.6259180638 ] } },
{ "type": "Feature", "properties": { "mine_id": 133, "state": "Madhya Pradesh", "district": "Satna", "subdistrict": "Satna", "display_name": "Mine 133 (Satna, Satna, Madhya Pradesh)" }, "geometry": { "type": "Point", "coordinates": [ 80.963373624200003, 24.6250472533 ] } },
{ "type": "Feature", "properties": { "mine_id": 134, "state": "Madhya Pradesh", "district": "Satna", "subdistrict": "Satna", "display_name": "Mine 134 (Satna, Satna, Madhya Pradesh)" }, "geometry": { "type": "Point", "coordinates": [ 81.086892694699998, 24.557543757800001 ] } },
{ "type": "Feature", "properties": { "mine_id": 135, "state": "Madhya Pradesh", "district": "Satna", "subdistrict": "Maihar", "display_name": "Mine 135 (Maihar, Satna, Madhya Pradesh)" }, "geometry": { "type": "Point", "coordinates": [ 80.854231998399996, 24.276704923299999 ] } },
{ "type": "Feature", "properties": { "mine_id": 136, "state": "Chhattisgarh", "district": "Rajnandgaon", "subdistrict": "Khairagarh", "display_name": "Mine 136 (Khairagarh, Rajnandgaon, Chhattisgarh)" }, "geometry": { "type": "Point", "coordinates": [ 80.849311459299997, 21.370610088799999 ] } },
{ "type": "Feature", "properties": { "mine_id": 137, "state": "Madhya Pradesh", "district": "Satna", "subdistrict": "Maihar", "display_name": "Mine 137 (Maihar, Satna, Madhya Pradesh)" }, "geometry": { "type": "Point", "coordinates": [ 80.847538703699996, 24.2778336507 ] } },
{ "type": "Feature", "properties": { "mine_id": 138, "state": "Madhya Pradesh", "district": "Balaghat", "subdistrict": "Waraseoni", "display_name": "Mine 138 (Waraseoni, Balaghat, Madhya Pradesh)" }, "geometry": { "type": "Point", "coordinates": [ 80.1112219611, 21.804795823500001 ] } },
{ "type": "Feature", "properties": { "mine_id": 139, "state": "Madhya Pradesh", "district": "Balaghat", "subdistrict": "Baihar", "display_name": "Mine 139 (Baihar, Balaghat, Madhya Pradesh)" }, "geometry": { "type": "Point", "coordinates": [ 80.702405392700001, 21.9907685953 ] } },
{ "type": "Feature", "properties": { "mine_id": 140, "state": "Madhya Pradesh", "district": "Balaghat", "subdistrict": "Baihar", "display_name": "Mine 140 (Baihar, Balaghat, Madhya Pradesh)" }, "geometry": { "type": "Point", "coordinates": [ 80.456043497500005, 21.9708279852 ] } },
{ "type": "Feature", "properties": { "mine_id": 141, "state": "Madhya Pradesh", "district": "Balaghat", "subdistrict": "Baihar", "display_name": "Mine 141 (Baihar, Balaghat, Madhya Pradesh)" }, "geometry": { "type": "Point", "coordinates": [ 80.434739357, 21.951159128 ] } },
{ "type": "Feature", "properties": { "mine_id": 142, "state": "Madhya Pradesh", "district": "Katni", "subdistrict": "Murwara", "display_name": "Mine 142 (Murwara, Katni, Madhya Pradesh)" }, "geometry": { "type": "Point", "coordinates": [ 80.534619806, 24.011984976600001 ] } },
{ "type": "Feature", "properties": { "mine_id": 143, "state": "Madhya Pradesh", "district": "Satna", "subdistrict": "Maihar", "display_name": "Mine 143 (Maihar, Satna, Madhya Pradesh)" }, "geometry": { "type": "Point", "coordinates": [ 80.801356452899995, 24.251967571600002 ] } },
{ "type": "Feature", "properties": { "mine_id": 144, "state": "Chhattisgarh", "district": "Kabeerdham", "subdistrict": "Kawardha", "display_name": "Mine 144 (Kawardha, Kabeerdham, Chhattisgarh)" }, "geometry": { "type": "Point", "coordinates": [ 81.185790183, 22.43043944 ] } },
{ "type": "Feature", "properties": { "mine_id": 145, "state": "Madhya Pradesh", "district": "Satna", "subdistrict": "Maihar", "display_name": "Mine 145 (Maihar, Satna, Madhya Pradesh)" }, "geometry": { "type": "Point", "coordinates": [ 80.891427736300002, 24.294299972200001 ] } },
{ "type": "Feature", "properties": { "mine_id": 146, "state": "Madhya Pradesh", "district": "Satna", "subdistrict": "Maihar", "display_name": "Mine 146 (Maihar, Satna, Madhya Pradesh)" }, "geometry": { "type": "Point", "coordinates": [ 80.754597805100005, 24.132548770900002 ] } },
{ "type": "Feature", "properties": { "mine_id": 147, "state": "Madhya Pradesh", "district": "Rewa", "subdistrict": "Rewa", "display_name": "Mine 147 (Rewa, Rewa, Madhya Pradesh)" }, "geometry": { "type": "Point", "coordinates": [ 81.167599973099996, 24.5138841216 ] } },
{ "type": "Feature", "properties": { "mine_id": 148, "state": "Madhya Pradesh", "district": "Anuppur", "subdistrict": "Anuppur", "display_name": "Mine 148 (Anuppur, Anuppur, Madhya Pradesh)" }, "geometry": { "type": "Point", "coordinates": [ 81.593232159600007, 23.2164261484 ] } },
{ "type": "Feature", "properties": { "mine_id": 149, "state": "Madhya Pradesh", "district": "Mandla", "subdistrict": "Mandla", "display_name": "Mine 149 (Mandla, Mandla, Madhya Pradesh)" }, "geometry": { "type": "Point", "coordinates": [ 80.418185245700002, 22.440800363600001 ] } },
{ "type": "Feature", "properties": { "mine_id": 150, "state": "Madhya Pradesh", "district": "Mandla", "subdistrict": "Mandla", "display_name": "Mine 150 (Mandla, Mandla, Madhya Pradesh)" }, "geometry": { "type": "Point", "coordinates": [ 80.417913758500006, 22.450178488900001 ] } },
{ "type": "Feature", "properties": { "mine_id": 151, "state": "Madhya Pradesh", "district": "Mandla", "subdistrict": "Mandla", "display_name": "Mine 151 (Mandla, Mandla, Madhya Pradesh)" }, "geometry": { "type": "Point", "coordinates": [ 80.392006187899995, 22.441515717600002 ] } },
{ "type": "Feature", "properties": { "mine_id": 152, "state": "Madhya Pradesh", "district": "Mandla", "subdistrict": "Mandla", "display_name": "Mine 152 (Mandla, Mandla, Madhya Pradesh)" }, "geometry": { "type": "Point", "coordinates": [ 80.374519949299994, 22.440456726600001 ] } },
{ "type": "Feature", "properties": { "mine_id": 153, "state": "Madhya Pradesh", "district": "Balaghat", "subdistrict": "Balaghat", "display_name": "Mine 153 (Balaghat, Balaghat, Madhya Pradesh)" }, "geometry": { "type": "Point", "coordinates": [ 80.229492436499996, 21.850282733899999 ] } },
{ "type": "Feature", "properties": { "mine_id": 154, "state": "Madhya Pradesh", "district": "Katni", "subdistrict": "Murwara", "display_name": "Mine 154 (Murwara, Katni, Madhya Pradesh)" }, "geometry": { "type": "Point", "coordinates": [ 80.386884475200006, 23.813590511800001 ] } },
{ "type": "Feature", "properties": { "mine_id": 155, "state": "Madhya Pradesh", "district": "Sidhi", "subdistrict": "Sidhi", "display_name": "Mine 155 (Sidhi, Sidhi, Madhya Pradesh)" }, "geometry": { "type": "Point", "coordinates": [ 81.324581326699999, 24.321027237900001 ] } },
{ "type": "Feature", "properties": { "mine_id": 156, "state": "Chhattisgarh", "district": "Rajnandgaon", "subdistrict": "Raj Nandgaon", "display_name": "Mine 156 (Raj Nandgaon, Rajnandgaon, Chhattisgarh)" }, "geometry": { "type": "Point", "coordinates": [ 81.159679039300002, 21.189198720899999 ] } },
{ "type": "Feature", "properties": { "mine_id": 157, "state": "Madhya Pradesh", "district": "Satna", "subdistrict": "Maihar", "display_name": "Mine 157 (Maihar, Satna, Madhya Pradesh)" }, "geometry": { "type": "Point", "coordinates": [ 80.663821863400003, 24.087141475 ] } },
{ "type": "Feature", "properties": { "mine_id": 158, "state": "Madhya Pradesh", "district": "Katni", "subdistrict": "Sihora", "display_name": "Mine 158 (Sihora, Katni, Madhya Pradesh)" }, "geometry": { "type": "Point", "coordinates": [ 80.209583766799994, 23.598517129 ] } },
{ "type": "Feature", "properties": { "mine_id": 159, "state": "Madhya Pradesh", "district": "Anuppur", "subdistrict": "Anuppur", "display_name": "Mine 159 (Anuppur, Anuppur, Madhya Pradesh)" }, "geometry": { "type": "Point", "coordinates": [ 81.635412105200004, 23.164781957900001 ] } },
{ "type": "Feature", "properties": { "mine_id": 160, "state": "Chhattisgarh", "district": "Surajpur", "subdistrict": "Surajpur", "display_name": "Mine 160 (Surajpur, Surajpur, Chhattisgarh)" }, "geometry": { "type": "Point", "coordinates": [ 82.993809012400007, 23.199920027899999 ] } },
{ "type": "Feature", "properties": { "mine_id": 161, "state": "Maharashtra", "district": "Chandrapur", "subdistrict": "Rajura", "display_name": "Mine 161 (Rajura, Chandrapur, Maharashtra)" }, "geometry": { "type": "Point", "coordinates": [ 79.296596061299994, 19.817200203399999 ] } },
{ "type": "Feature", "properties": { "mine_id": 162, "state": "Madhya Pradesh", "district": "Damoh", "subdistrict": "Damoh", "display_name": "Mine 162 (Damoh, Damoh, Madhya Pradesh)" }, "geometry": { "type": "Point", "coordinates": [ 79.383036517700006, 23.991217354700002 ] } },
{ "type": "Feature", "properties": { "mine_id": 163, "state": "Maharashtra", "district": "Nagpur", "subdistrict": "Parsivni", "display_name": "Mine 163 (Parsivni, Nagpur, Maharashtra)" }, "geometry": { "type": "Point", "coordinates": [ 79.207652580100003, 21.255493453100001 ] } },
{ "type": "Feature", "properties": { "mine_id": 164, "state": "Maharashtra", "district": "Nagpur", "subdistrict": "Kalmeshwar", "display_name": "Mine 164 (Kalmeshwar, Nagpur, Maharashtra)" }, "geometry": { "type": "Point", "coordinates": [ 78.930179132700005, 21.356865474 ] } },
{ "type": "Feature", "properties": { "mine_id": 165, "state": "Maharashtra", "district": "Nagpur", "subdistrict": "Umred", "display_name": "Mine 165 (Umred, Nagpur, Maharashtra)" }, "geometry": { "type": "Point", "coordinates": [ 79.278177868100002, 20.865178673700001 ] } },
{ "type": "Feature", "properties": { "mine_id": 166, "state": "Madhya Pradesh", "district": "Narsimhapur", "subdistrict": "Gadarwara", "display_name": "Mine 166 (Gadarwara, Narsimhapur, Madhya Pradesh)" }, "geometry": { "type": "Point", "coordinates": [ 78.801997338099994, 22.73969034 ] } },
{ "type": "Feature", "properties": { "mine_id": 167, "state": "Maharashtra", "district": "Chandrapur", "subdistrict": "Rajura", "display_name": "Mine 167 (Rajura, Chandrapur, Maharashtra)" }, "geometry": { "type": "Point", "coordinates": [ 79.153238148, 19.646000121699998 ] } },
{ "type": "Feature", "properties": { "mine_id": 168, "state": "Maharashtra", "district": "Yavatmal", "subdistrict": "Wani", "display_name": "Mine 168 (Wani, Yavatmal, Maharashtra)" }, "geometry": { "type": "Point", "coordinates": [ 79.117646751600006, 19.887340220199999 ] } },
{ "type": "Feature", "properties": { "mine_id": 169, "state": "Maharashtra", "district": "Chandrapur", "subdistrict": "Rajura", "display_name": "Mine 169 (Rajura, Chandrapur, Maharashtra)" }, "geometry": { "type": "Point", "coordinates": [ 79.157499661900005, 19.7963569132 ] } },
{ "type": "Feature", "properties": { "mine_id": 170, "state": "Maharashtra", "district": "Chandrapur", "subdistrict": "Rajura", "display_name": "Mine 170 (Rajura, Chandrapur, Maharashtra)" }, "geometry": { "type": "Point", "coordinates": [ 79.040255447899995, 19.801149573499998 ] } },
{ "type": "Feature", "properties": { "mine_id": 171, "state": "Maharashtra", "district": "Chandrapur", "subdistrict": "Rajura", "display_name": "Mine 171 (Rajura, Chandrapur, Maharashtra)" }, "geometry": { "type": "Point", "coordinates": [ 79.056564796200007, 19.7895119595 ] } },
{ "type": "Feature", "properties": { "mine_id": 172, "state": "Madhya Pradesh", "district": "Singrauli", "subdistrict": "Singrauli", "display_name": "Mine 172 (Singrauli, Singrauli, Madhya Pradesh)" }, "geometry": { "type": "Point", "coordinates": [ 82.617697988499998, 24.153666543 ] } },
{ "type": "Feature", "properties": { "mine_id": 173, "state": "Madhya Pradesh", "district": "Singrauli", "subdistrict": "Singrauli", "display_name": "Mine 173 (Singrauli, Singrauli, Madhya Pradesh)" }, "geometry": { "type": "Point", "coordinates": [ 82.717197386199999, 24.2084648718 ] } },
{ "type": "Feature", "properties": { "mine_id": 174, "state": "Maharashtra", "district": "Bhandara", "subdistrict": "Sakoli", "display_name": "Mine 174 (Sakoli, Bhandara, Maharashtra)" }, "geometry": { "type": "Point", "coordinates": [ 79.991190490500003, 21.0409967559 ] } },
{ "type": "Feature", "properties": { "mine_id": 175, "state": "Maharashtra", "district": "Bhandara", "subdistrict": "Bhandara", "display_name": "Mine 175 (Bhandara, Bhandara, Maharashtra)" }, "geometry": { "type": "Point", "coordinates": [ 79.708722254899996, 21.130698845 ] } },
{ "type": "Feature", "properties": { "mine_id": 176, "state": "Chhattisgarh", "district": "Surajpur", "subdistrict": "Surajpur", "display_name": "Mine 176 (Surajpur, Surajpur, Chhattisgarh)" }, "geometry": { "type": "Point", "coordinates": [ 82.987892677600001, 23.372679211099999 ] } },
{ "type": "Feature", "properties": { "mine_id": 177, "state": "Madhya Pradesh", "district": "Katni", "subdistrict": "Sihora", "display_name": "Mine 177 (Sihora, Katni, Madhya Pradesh)" }, "geometry": { "type": "Point", "coordinates": [ 80.033904988, 23.362090306399999 ] } },
{ "type": "Feature", "properties": { "mine_id": 178, "state": "Chhattisgarh", "district": "Koriya", "subdistrict": "Manendragarh", "display_name": "Mine 178 (Manendragarh, Koriya, Chhattisgarh)" }, "geometry": { "type": "Point", "coordinates": [ 82.150492409600005, 23.223561087899999 ] } },
{ "type": "Feature", "properties": { "mine_id": 179, "state": "Chhattisgarh", "district": "Koriya", "subdistrict": "Manendragarh", "display_name": "Mine 179 (Manendragarh, Koriya, Chhattisgarh)" }, "geometry": { "type": "Point", "coordinates": [ 82.161754477100004, 23.196535766299998 ] } },
{ "type": "Feature", "properties": { "mine_id": 180, "state": "Madhya Pradesh", "district": "Chhindwara", "subdistrict": "Parasia", "display_name": "Mine 180 (Parasia, Chhindwara, Madhya Pradesh)" }, "geometry": { "type": "Point", "coordinates": [ 78.828005526200002, 22.206093854599999 ] } },
{ "type": "Feature", "properties": { "mine_id": 181, "state": "Madhya Pradesh", "district": "Chhindwara", "subdistrict": "Parasia", "display_name": "Mine 181 (Parasia, Chhindwara, Madhya Pradesh)" }, "geometry": { "type": "Point", "coordinates": [ 78.809982316399996, 22.201886994399999 ] } },
{ "type": "Feature", "properties": { "mine_id": 182, "state": "Maharashtra", "district": "Bhandara", "subdistrict": "Sakoli", "display_name": "Mine 182 (Sakoli, Bhandara, Maharashtra)" }, "geometry": { "type": "Point", "coordinates": [ 80.018587743599994, 21.063114864 ] } },
{ "type": "Feature", "properties": { "mine_id": 183, "state": "Maharashtra", "district": "Nagpur", "subdistrict": "Kamthi", "display_name": "Mine 183 (Kamthi, Nagpur, Maharashtra)" }, "geometry": { "type": "Point", "coordinates": [ 79.149018622900002, 21.234181847199999 ] } },
{ "type": "Feature", "properties": { "mine_id": 184, "state": "Maharashtra", "district": "Nagpur", "subdistrict": "Hingana", "display_name": "Mine 184 (Hingana, Nagpur, Maharashtra)" }, "geometry": { "type": "Point", "coordinates": [ 79.037468718200003, 21.225995935299999 ] } },
{ "type": "Feature", "properties": { "mine_id": 185, "state": "Maharashtra", "district": "Nagpur", "subdistrict": "Hingana", "display_name": "Mine 185 (Hingana, Nagpur, Maharashtra)" }, "geometry": { "type": "Point", "coordinates": [ 78.938738023, 20.928095165 ] } },
{ "type": "Feature", "properties": { "mine_id": 186, "state": "Maharashtra", "district": "Nagpur", "subdistrict": "Hingana", "display_name": "Mine 186 (Hingana, Nagpur, Maharashtra)" }, "geometry": { "type": "Point", "coordinates": [ 78.892303033600001, 21.079845257199999 ] } },
{ "type": "Feature", "properties": { "mine_id": 187, "state": "Maharashtra", "district": "Nagpur", "subdistrict": "Hingana", "display_name": "Mine 187 (Hingana, Nagpur, Maharashtra)" }, "geometry": { "type": "Point", "coordinates": [ 79.013364254300001, 21.219090360300001 ] } },
{ "type": "Feature", "properties": { "mine_id": 188, "state": "Maharashtra", "district": "Nagpur", "subdistrict": "Hingana", "display_name": "Mine 188 (Hingana, Nagpur, Maharashtra)" }, "geometry": { "type": "Point", "coordinates": [ 79.0371541385, 21.219847543099998 ] } },
{ "type": "Feature", "properties": { "mine_id": 189, "state": "Maharashtra", "district": "Nagpur", "subdistrict": "Hingana", "display_name": "Mine 189 (Hingana, Nagpur, Maharashtra)" }, "geometry": { "type": "Point", "coordinates": [ 79.041568371799997, 21.217690166 ] } },
{ "type": "Feature", "properties": { "mine_id": 190, "state": "Maharashtra", "district": "Nagpur", "subdistrict": "Savner", "display_name": "Mine 190 (Savner, Nagpur, Maharashtra)" }, "geometry": { "type": "Point", "coordinates": [ 78.971913486800005, 21.4035869207 ] } },
{ "type": "Feature", "properties": { "mine_id": 191, "state": "Madhya Pradesh", "district": "Chhindwara", "subdistrict": "Parasia", "display_name": "Mine 191 (Parasia, Chhindwara, Madhya Pradesh)" }, "geometry": { "type": "Point", "coordinates": [ 78.950987414500005, 22.2793564493 ] } },
{ "type": "Feature", "properties": { "mine_id": 192, "state": "Maharashtra", "district": "Chandrapur", "subdistrict": "Bhadravathi", "display_name": "Mine 192 (Bhadravathi, Chandrapur, Maharashtra)" }, "geometry": { "type": "Point", "coordinates": [ 79.103650401500005, 20.1395367505 ] } },
{ "type": "Feature", "properties": { "mine_id": 193, "state": "Maharashtra", "district": "Chandrapur", "subdistrict": "Warora", "display_name": "Mine 193 (Warora, Chandrapur, Maharashtra)" }, "geometry": { "type": "Point", "coordinates": [ 79.030514700599994, 20.340612268400001 ] } },
{ "type": "Feature", "properties": { "mine_id": 194, "state": "Maharashtra", "district": "Chandrapur", "subdistrict": "Warora", "display_name": "Mine 194 (Warora, Chandrapur, Maharashtra)" }, "geometry": { "type": "Point", "coordinates": [ 79.086051673900002, 20.340602692099999 ] } },
{ "type": "Feature", "properties": { "mine_id": 195, "state": "Maharashtra", "district": "Chandrapur", "subdistrict": "Rajura", "display_name": "Mine 195 (Rajura, Chandrapur, Maharashtra)" }, "geometry": { "type": "Point", "coordinates": [ 79.137058981899997, 19.850654818500001 ] } },
{ "type": "Feature", "properties": { "mine_id": 196, "state": "Maharashtra", "district": "Nagpur", "subdistrict": "Nagpur", "display_name": "Mine 196 (Nagpur, Nagpur, Maharashtra)" }, "geometry": { "type": "Point", "coordinates": [ 79.109884351600002, 21.0032602416 ] } },
{ "type": "Feature", "properties": { "mine_id": 197, "state": "Maharashtra", "district": "Nagpur", "subdistrict": "Nagpur", "display_name": "Mine 197 (Nagpur, Nagpur, Maharashtra)" }, "geometry": { "type": "Point", "coordinates": [ 79.031054726199997, 20.927449511500001 ] } },
{ "type": "Feature", "properties": { "mine_id": 198, "state": "Maharashtra", "district": "Nagpur", "subdistrict": "Ramtek", "display_name": "Mine 198 (Ramtek, Nagpur, Maharashtra)" }, "geometry": { "type": "Point", "coordinates": [ 79.3770171627, 21.338557764600001 ] } },
{ "type": "Feature", "properties": { "mine_id": 199, "state": "Madhya Pradesh", "district": "Chhindwara", "subdistrict": "Sausar", "display_name": "Mine 199 (Sausar, Chhindwara, Madhya Pradesh)" }, "geometry": { "type": "Point", "coordinates": [ 78.818623561300001, 21.530282351 ] } },
{ "type": "Feature", "properties": { "mine_id": 200, "state": "Madhya Pradesh", "district": "Chhindwara", "subdistrict": "Sausar", "display_name": "Mine 200 (Sausar, Chhindwara, Madhya Pradesh)" }, "geometry": { "type": "Point", "coordinates": [ 78.813245982, 21.555224091900001 ] } },
{ "type": "Feature", "properties": { "mine_id": 201, "state": "Madhya Pradesh", "district": "Chhindwara", "subdistrict": "Sausar", "display_name": "Mine 201 (Sausar, Chhindwara, Madhya Pradesh)" }, "geometry": { "type": "Point", "coordinates": [ 78.916250690300004, 21.508481601100002 ] } },
{ "type": "Feature", "properties": { "mine_id": 202, "state": "Madhya Pradesh", "district": "Chhindwara", "subdistrict": "Sausar", "display_name": "Mine 202 (Sausar, Chhindwara, Madhya Pradesh)" }, "geometry": { "type": "Point", "coordinates": [ 78.924100180099998, 21.5073646546 ] } },
{ "type": "Feature", "properties": { "mine_id": 203, "state": "Maharashtra", "district": "Nagpur", "subdistrict": "Savner", "display_name": "Mine 203 (Savner, Nagpur, Maharashtra)" }, "geometry": { "type": "Point", "coordinates": [ 78.948953846099997, 21.499047792199999 ] } },
{ "type": "Feature", "properties": { "mine_id": 204, "state": "Maharashtra", "district": "Nagpur", "subdistrict": "Parsivni", "display_name": "Mine 204 (Parsivni, Nagpur, Maharashtra)" }, "geometry": { "type": "Point", "coordinates": [ 79.211222205, 21.429417375700002 ] } },
{ "type": "Feature", "properties": { "mine_id": 205, "state": "Maharashtra", "district": "Nagpur", "subdistrict": "Parsivni", "display_name": "Mine 205 (Parsivni, Nagpur, Maharashtra)" }, "geometry": { "type": "Point", "coordinates": [ 79.215499832600003, 21.426681503499999 ] } },
{ "type": "Feature", "properties": { "mine_id": 206, "state": "Madhya Pradesh", "district": "Chhindwara", "subdistrict": "Sausar", "display_name": "Mine 206 (Sausar, Chhindwara, Madhya Pradesh)" }, "geometry": { "type": "Point", "coordinates": [ 78.784300418399994, 21.7241372057 ] } },
{ "type": "Feature", "properties": { "mine_id": 207, "state": "Madhya Pradesh", "district": "Balaghat", "subdistrict": "Waraseoni", "display_name": "Mine 207 (Waraseoni, Balaghat, Madhya Pradesh)" }, "geometry": { "type": "Point", "coordinates": [ 79.672849177299994, 21.674239004099999 ] } },
{ "type": "Feature", "properties": { "mine_id": 208, "state": "Maharashtra", "district": "Gondiya", "subdistrict": "Tirora", "display_name": "Mine 208 (Tirora, Gondiya, Maharashtra)" }, "geometry": { "type": "Point", "coordinates": [ 79.894195008799997, 21.349130263799999 ] } },
{ "type": "Feature", "properties": { "mine_id": 209, "state": "Madhya Pradesh", "district": "Sagar", "subdistrict": "Banda", "display_name": "Mine 209 (Banda, Sagar, Madhya Pradesh)" }, "geometry": { "type": "Point", "coordinates": [ 79.217902032300003, 24.377683295200001 ] } },
{ "type": "Feature", "properties": { "mine_id": 210, "state": "Madhya Pradesh", "district": "Sagar", "subdistrict": "Banda", "display_name": "Mine 210 (Banda, Sagar, Madhya Pradesh)" }, "geometry": { "type": "Point", "coordinates": [ 79.223671419799999, 24.3787103272 ] } },
{ "type": "Feature", "properties": { "mine_id": 211, "state": "Madhya Pradesh", "district": "Katni", "subdistrict": "Sihora", "display_name": "Mine 211 (Sihora, Katni, Madhya Pradesh)" }, "geometry": { "type": "Point", "coordinates": [ 80.0250155, 23.5822408131 ] } },
{ "type": "Feature", "properties": { "mine_id": 212, "state": "Madhya Pradesh", "district": "Katni", "subdistrict": "Sihora", "display_name": "Mine 212 (Sihora, Katni, Madhya Pradesh)" }, "geometry": { "type": "Point", "coordinates": [ 80.0495305659, 23.393952566399999 ] } },
{ "type": "Feature", "properties": { "mine_id": 213, "state": "Madhya Pradesh", "district": "Katni", "subdistrict": "Sihora", "display_name": "Mine 213 (Sihora, Katni, Madhya Pradesh)" }, "geometry": { "type": "Point", "coordinates": [ 80.038123563100001, 23.4023119919 ] } },
{ "type": "Feature", "properties": { "mine_id": 214, "state": "Madhya Pradesh", "district": "Katni", "subdistrict": "Sihora", "display_name": "Mine 214 (Sihora, Katni, Madhya Pradesh)" }, "geometry": { "type": "Point", "coordinates": [ 80.003426223899993, 23.362206667100001 ] } },
{ "type": "Feature", "properties": { "mine_id": 215, "state": "Madhya Pradesh", "district": "Jabalpur", "subdistrict": "Patan", "display_name": "Mine 215 (Patan, Jabalpur, Madhya Pradesh)" }, "geometry": { "type": "Point", "coordinates": [ 79.781599293300005, 23.1108425973 ] } },
{ "type": "Feature", "properties": { "mine_id": 216, "state": "Madhya Pradesh", "district": "Jabalpur", "subdistrict": "Patan", "display_name": "Mine 216 (Patan, Jabalpur, Madhya Pradesh)" }, "geometry": { "type": "Point", "coordinates": [ 79.7633823197, 23.1162618629 ] } },
{ "type": "Feature", "properties": { "mine_id": 217, "state": "Madhya Pradesh", "district": "Jabalpur", "subdistrict": "Patan", "display_name": "Mine 217 (Patan, Jabalpur, Madhya Pradesh)" }, "geometry": { "type": "Point", "coordinates": [ 79.716094669, 23.098413683899999 ] } },
{ "type": "Feature", "properties": { "mine_id": 218, "state": "Madhya Pradesh", "district": "Jabalpur", "subdistrict": "Jabalpur", "display_name": "Mine 218 (Jabalpur, Jabalpur, Madhya Pradesh)" }, "geometry": { "type": "Point", "coordinates": [ 79.840650644799993, 23.079924096399999 ] } },
{ "type": "Feature", "properties": { "mine_id": 219, "state": "Madhya Pradesh", "district": "Jabalpur", "subdistrict": "Jabalpur", "display_name": "Mine 219 (Jabalpur, Jabalpur, Madhya Pradesh)" }, "geometry": { "type": "Point", "coordinates": [ 79.830446158100003, 23.0741000634 ] } },
{ "type": "Feature", "properties": { "mine_id": 220, "state": "Madhya Pradesh", "district": "Katni", "subdistrict": "Sihora", "display_name": "Mine 220 (Sihora, Katni, Madhya Pradesh)" }, "geometry": { "type": "Point", "coordinates": [ 79.984330288, 23.500037338199999 ] } },
{ "type": "Feature", "properties": { "mine_id": 221, "state": "Madhya Pradesh", "district": "Katni", "subdistrict": "Sihora", "display_name": "Mine 221 (Sihora, Katni, Madhya Pradesh)" }, "geometry": { "type": "Point", "coordinates": [ 80.012965486, 23.694533847 ] } },
{ "type": "Feature", "properties": { "mine_id": 222, "state": "Chhattisgarh", "district": "Bilaspur", "subdistrict": "Bilaspur", "display_name": "Mine 222 (Bilaspur, Bilaspur, Chhattisgarh)" }, "geometry": { "type": "Point", "coordinates": [ 82.2011796723, 21.899246634 ] } },
{ "type": "Feature", "properties": { "mine_id": 223, "state": "Chhattisgarh", "district": "Bilaspur", "subdistrict": "Bilaspur", "display_name": "Mine 223 (Bilaspur, Bilaspur, Chhattisgarh)" }, "geometry": { "type": "Point", "coordinates": [ 82.021671664600007, 21.967665389899999 ] } },
{ "type": "Feature", "properties": { "mine_id": 224, "state": "Chhattisgarh", "district": "Bilaspur", "subdistrict": "Bilaspur", "display_name": "Mine 224 (Bilaspur, Bilaspur, Chhattisgarh)" }, "geometry": { "type": "Point", "coordinates": [ 82.048113693600001, 21.980538513100001 ] } },
{ "type": "Feature", "properties": { "mine_id": 225, "state": "Chhattisgarh", "district": "Bilaspur", "subdistrict": "Bilaspur", "display_name": "Mine 225 (Bilaspur, Bilaspur, Chhattisgarh)" }, "geometry": { "type": "Point", "coordinates": [ 82.043547579800006, 21.974874892300001 ] } },
{ "type": "Feature", "properties": { "mine_id": 226, "state": "Chhattisgarh", "district": "Bilaspur", "subdistrict": "Bilaspur", "display_name": "Mine 226 (Bilaspur, Bilaspur, Chhattisgarh)" }, "geometry": { "type": "Point", "coordinates": [ 82.049572799700002, 21.984656916 ] } },
{ "type": "Feature", "properties": { "mine_id": 227, "state": "Chhattisgarh", "district": "Bilaspur", "subdistrict": "Bilaspur", "display_name": "Mine 227 (Bilaspur, Bilaspur, Chhattisgarh)" }, "geometry": { "type": "Point", "coordinates": [ 82.057749605, 21.987985438599999 ] } },
{ "type": "Feature", "properties": { "mine_id": 228, "state": "Chhattisgarh", "district": "Bilaspur", "subdistrict": "Bilaspur", "display_name": "Mine 228 (Bilaspur, Bilaspur, Chhattisgarh)" }, "geometry": { "type": "Point", "coordinates": [ 82.046566600199995, 21.9772119661 ] } },
{ "type": "Feature", "properties": { "mine_id": 229, "state": "Chhattisgarh", "district": "Bilaspur", "subdistrict": "Bilaspur", "display_name": "Mine 229 (Bilaspur, Bilaspur, Chhattisgarh)" }, "geometry": { "type": "Point", "coordinates": [ 82.062790129800007, 21.998056977699999 ] } },
{ "type": "Feature", "properties": { "mine_id": 230, "state": "Chhattisgarh", "district": "Bilaspur", "subdistrict": "Takhatpur", "display_name": "Mine 230 (Takhatpur, Bilaspur, Chhattisgarh)" }, "geometry": { "type": "Point", "coordinates": [ 82.070986208099995, 22.0055850695 ] } },
{ "type": "Feature", "properties": { "mine_id": 231, "state": "Chhattisgarh", "district": "Bilaspur", "subdistrict": "Bilaspur", "display_name": "Mine 231 (Bilaspur, Bilaspur, Chhattisgarh)" }, "geometry": { "type": "Point", "coordinates": [ 82.083795993, 22.031687580900002 ] } },
{ "type": "Feature", "properties": { "mine_id": 232, "state": "Chhattisgarh", "district": "Bilaspur", "subdistrict": "Bilaspur", "display_name": "Mine 232 (Bilaspur, Bilaspur, Chhattisgarh)" }, "geometry": { "type": "Point", "coordinates": [ 82.076792579200003, 21.965006575699999 ] } },
{ "type": "Feature", "properties": { "mine_id": 233, "state": "Maharashtra", "district": "Chandrapur", "subdistrict": "Chimur", "display_name": "Mine 233 (Chimur, Chandrapur, Maharashtra)" }, "geometry": { "type": "Point", "coordinates": [ 79.522584741599999, 20.485416896899999 ] } },
{ "type": "Feature", "properties": { "mine_id": 234, "state": "Maharashtra", "district": "Chandrapur", "subdistrict": "Chimur", "display_name": "Mine 234 (Chimur, Chandrapur, Maharashtra)" }, "geometry": { "type": "Point", "coordinates": [ 79.501935565400004, 20.5466248478 ] } },
{ "type": "Feature", "properties": { "mine_id": 235, "state": "Maharashtra", "district": "Gondiya", "subdistrict": "Arjuni Morgaon", "display_name": "Mine 235 (Arjuni Morgaon, Gondiya, Maharashtra)" }, "geometry": { "type": "Point", "coordinates": [ 79.911783448, 20.881045002 ] } },
{ "type": "Feature", "properties": { "mine_id": 236, "state": "Maharashtra", "district": "Nagpur", "subdistrict": "Bhiwapur", "display_name": "Mine 236 (Bhiwapur, Nagpur, Maharashtra)" }, "geometry": { "type": "Point", "coordinates": [ 79.301448921599999, 20.695400267499998 ] } },
{ "type": "Feature", "properties": { "mine_id": 237, "state": "Madhya Pradesh", "district": "Balaghat", "subdistrict": "Waraseoni", "display_name": "Mine 237 (Waraseoni, Balaghat, Madhya Pradesh)" }, "geometry": { "type": "Point", "coordinates": [ 79.556171872099995, 21.6300511516 ] } },
{ "type": "Feature", "properties": { "mine_id": 238, "state": "Maharashtra", "district": "Nagpur", "subdistrict": "Ramtek", "display_name": "Mine 238 (Ramtek, Nagpur, Maharashtra)" }, "geometry": { "type": "Point", "coordinates": [ 79.453478060699993, 21.654835908 ] } },
{ "type": "Feature", "properties": { "mine_id": 239, "state": "Maharashtra", "district": "Nagpur", "subdistrict": "Ramtek", "display_name": "Mine 239 (Ramtek, Nagpur, Maharashtra)" }, "geometry": { "type": "Point", "coordinates": [ 79.443351280800002, 21.660368717400001 ] } },
{ "type": "Feature", "properties": { "mine_id": 240, "state": "Maharashtra", "district": "Nagpur", "subdistrict": "Ramtek", "display_name": "Mine 240 (Ramtek, Nagpur, Maharashtra)" }, "geometry": { "type": "Point", "coordinates": [ 79.4104905242, 21.6792761538 ] } },
{ "type": "Feature", "properties": { "mine_id": 241, "state": "Madhya Pradesh", "district": "Balaghat", "subdistrict": "Waraseoni", "display_name": "Mine 241 (Waraseoni, Balaghat, Madhya Pradesh)" }, "geometry": { "type": "Point", "coordinates": [ 79.790781851399998, 21.741296540699999 ] } },
{ "type": "Feature", "properties": { "mine_id": 242, "state": "Madhya Pradesh", "district": "Balaghat", "subdistrict": "Waraseoni", "display_name": "Mine 242 (Waraseoni, Balaghat, Madhya Pradesh)" }, "geometry": { "type": "Point", "coordinates": [ 79.811572510700003, 21.6336978157 ] } },
{ "type": "Feature", "properties": { "mine_id": 243, "state": "Madhya Pradesh", "district": "Chhindwara", "subdistrict": "Amarwara", "display_name": "Mine 243 (Amarwara, Chhindwara, Madhya Pradesh)" }, "geometry": { "type": "Point", "coordinates": [ 79.277291295, 22.036517007600001 ] } },
{ "type": "Feature", "properties": { "mine_id": 244, "state": "Madhya Pradesh", "district": "Damoh", "subdistrict": "Hatta", "display_name": "Mine 244 (Hatta, Damoh, Madhya Pradesh)" }, "geometry": { "type": "Point", "coordinates": [ 79.686095817400002, 24.207147276200001 ] } },
{ "type": "Feature", "properties": { "mine_id": 245, "state": "Madhya Pradesh", "district": "Seoni", "subdistrict": "Seoni", "display_name": "Mine 245 (Seoni, Seoni, Madhya Pradesh)" }, "geometry": { "type": "Point", "coordinates": [ 80.023480203800005, 22.410562557199999 ] } },
{ "type": "Feature", "properties": { "mine_id": 246, "state": "Madhya Pradesh", "district": "Seoni", "subdistrict": "Seoni", "display_name": "Mine 246 (Seoni, Seoni, Madhya Pradesh)" }, "geometry": { "type": "Point", "coordinates": [ 80.0328962902, 22.402742367399998 ] } },
{ "type": "Feature", "properties": { "mine_id": 247, "state": "Madhya Pradesh", "district": "Seoni", "subdistrict": "Seoni", "display_name": "Mine 247 (Seoni, Seoni, Madhya Pradesh)" }, "geometry": { "type": "Point", "coordinates": [ 80.005937656499995, 22.404943267099998 ] } },
{ "type": "Feature", "properties": { "mine_id": 248, "state": "Maharashtra", "district": "Chandrapur", "subdistrict": "Bhadravathi", "display_name": "Mine 248 (Bhadravathi, Chandrapur, Maharashtra)" }, "geometry": { "type": "Point", "coordinates": [ 79.177979251, 20.103714228299999 ] } },
{ "type": "Feature", "properties": { "mine_id": 249, "state": "Madhya Pradesh", "district": "Chhatarpur", "subdistrict": "Chhatarpur", "display_name": "Mine 249 (Chhatarpur, Chhatarpur, Madhya Pradesh)" }, "geometry": { "type": "Point", "coordinates": [ 79.94587201, 24.994355545800001 ] } },
{ "type": "Feature", "properties": { "mine_id": 250, "state": "Maharashtra", "district": "Nagpur", "subdistrict": "Parsivni", "display_name": "Mine 250 (Parsivni, Nagpur, Maharashtra)" }, "geometry": { "type": "Point", "coordinates": [ 79.283330914800004, 21.401911979 ] } },
{ "type": "Feature", "properties": { "mine_id": 251, "state": "Maharashtra", "district": "Nagpur", "subdistrict": "Kuhi", "display_name": "Mine 251 (Kuhi, Nagpur, Maharashtra)" }, "geometry": { "type": "Point", "coordinates": [ 79.391284679, 21.04083487 ] } },
{ "type": "Feature", "properties": { "mine_id": 252, "state": "Maharashtra", "district": "Wardha", "subdistrict": "Arvi", "display_name": "Mine 252 (Arvi, Wardha, Maharashtra)" }, "geometry": { "type": "Point", "coordinates": [ 78.310264151699997, 21.000289694399999 ] } },
{ "type": "Feature", "properties": { "mine_id": 253, "state": "Maharashtra", "district": "Nagpur", "subdistrict": "Umred", "display_name": "Mine 253 (Umred, Nagpur, Maharashtra)" }, "geometry": { "type": "Point", "coordinates": [ 79.055102474899996, 20.806200123 ] } },
{ "type": "Feature", "properties": { "mine_id": 254, "state": "Madhya Pradesh", "district": "Seoni", "subdistrict": "Seoni", "display_name": "Mine 254 (Seoni, Seoni, Madhya Pradesh)" }, "geometry": { "type": "Point", "coordinates": [ 80.033483201500005, 22.409333963200002 ] } },
{ "type": "Feature", "properties": { "mine_id": 255, "state": "Maharashtra", "district": "Nagpur", "subdistrict": "Savner", "display_name": "Mine 255 (Savner, Nagpur, Maharashtra)" }, "geometry": { "type": "Point", "coordinates": [ 78.988804790800003, 21.406329838800001 ] } },
{ "type": "Feature", "properties": { "mine_id": 256, "state": "Madhya Pradesh", "district": "Sagar", "subdistrict": "Rehli", "display_name": "Mine 256 (Rehli, Sagar, Madhya Pradesh)" }, "geometry": { "type": "Point", "coordinates": [ 79.003495222, 23.448067831 ] } },
{ "type": "Feature", "properties": { "mine_id": 257, "state": "Madhya Pradesh", "district": "Katni", "subdistrict": "Sihora", "display_name": "Mine 257 (Sihora, Katni, Madhya Pradesh)" }, "geometry": { "type": "Point", "coordinates": [ 80.017506297799997, 23.372187248900001 ] } },
{ "type": "Feature", "properties": { "mine_id": 258, "state": "Madhya Pradesh", "district": "Damoh", "subdistrict": "Damoh", "display_name": "Mine 258 (Damoh, Damoh, Madhya Pradesh)" }, "geometry": { "type": "Point", "coordinates": [ 79.387588776800001, 23.7617455653 ] } },
{ "type": "Feature", "properties": { "mine_id": 259, "state": "Madhya Pradesh", "district": "Katni", "subdistrict": "Sihora", "display_name": "Mine 259 (Sihora, Katni, Madhya Pradesh)" }, "geometry": { "type": "Point", "coordinates": [ 80.160247591200005, 23.583489763 ] } },
{ "type": "Feature", "properties": { "mine_id": 260, "state": "Madhya Pradesh", "district": "Katni", "subdistrict": "Sihora", "display_name": "Mine 260 (Sihora, Katni, Madhya Pradesh)" }, "geometry": { "type": "Point", "coordinates": [ 80.1487921513, 23.5891076015 ] } },
{ "type": "Feature", "properties": { "mine_id": 261, "state": "Madhya Pradesh", "district": "Betul", "subdistrict": "Betul", "display_name": "Mine 261 (Betul, Betul, Madhya Pradesh)" }, "geometry": { "type": "Point", "coordinates": [ 77.778855965299996, 21.838899721699999 ] } },
{ "type": "Feature", "properties": { "mine_id": 262, "state": "Madhya Pradesh", "district": "Katni", "subdistrict": "Sihora", "display_name": "Mine 262 (Sihora, Katni, Madhya Pradesh)" }, "geometry": { "type": "Point", "coordinates": [ 80.113465263699993, 23.5692478269 ] } },
{ "type": "Feature", "properties": { "mine_id": 263, "state": "Madhya Pradesh", "district": "Katni", "subdistrict": "Sihora", "display_name": "Mine 263 (Sihora, Katni, Madhya Pradesh)" }, "geometry": { "type": "Point", "coordinates": [ 80.116089788500005, 23.574441760300001 ] } },
{ "type": "Feature", "properties": { "mine_id": 264, "state": "Maharashtra", "district": "Wardha", "subdistrict": "Arvi", "display_name": "Mine 264 (Arvi, Wardha, Maharashtra)" }, "geometry": { "type": "Point", "coordinates": [ 78.347401269499997, 20.941365208299999 ] } },
{ "type": "Feature", "properties": { "mine_id": 265, "state": "Chhattisgarh", "district": "Koriya", "subdistrict": "Manendragarh", "display_name": "Mine 265 (Manendragarh, Koriya, Chhattisgarh)" }, "geometry": { "type": "Point", "coordinates": [ 82.377559125199994, 23.1185353075 ] } },
{ "type": "Feature", "properties": { "mine_id": 266, "state": "Madhya Pradesh", "district": "Panna", "subdistrict": "Panna", "display_name": "Mine 266 (Panna, Panna, Madhya Pradesh)" }, "geometry": { "type": "Point", "coordinates": [ 80.033733057, 24.643952402 ] } },
{ "type": "Feature", "properties": { "mine_id": 267, "state": "Maharashtra", "district": "Nagpur", "subdistrict": "Umred", "display_name": "Mine 267 (Umred, Nagpur, Maharashtra)" }, "geometry": { "type": "Point", "coordinates": [ 79.279837784, 20.792766050600001 ] } },
{ "type": "Feature", "properties": { "mine_id": 268, "state": "Maharashtra", "district": "Nagpur", "subdistrict": "Bhiwapur", "display_name": "Mine 268 (Bhiwapur, Nagpur, Maharashtra)" }, "geometry": { "type": "Point", "coordinates": [ 79.31712956, 20.7736051037 ] } },
{ "type": "Feature", "properties": { "mine_id": 269, "state": "Maharashtra", "district": "Nagpur", "subdistrict": "Umred", "display_name": "Mine 269 (Umred, Nagpur, Maharashtra)" }, "geometry": { "type": "Point", "coordinates": [ 79.293886510700005, 20.796382973299998 ] } },
{ "type": "Feature", "properties": { "mine_id": 270, "state": "Maharashtra", "district": "Nagpur", "subdistrict": "Umred", "display_name": "Mine 270 (Umred, Nagpur, Maharashtra)" }, "geometry": { "type": "Point", "coordinates": [ 79.298915862699999, 20.790704356700001 ] } },
{ "type": "Feature", "properties": { "mine_id": 271, "state": "Maharashtra", "district": "Nagpur", "subdistrict": "Umred", "display_name": "Mine 271 (Umred, Nagpur, Maharashtra)" }, "geometry": { "type": "Point", "coordinates": [ 79.298333432099994, 20.7847499658 ] } },
{ "type": "Feature", "properties": { "mine_id": 272, "state": "Maharashtra", "district": "Nagpur", "subdistrict": "Umred", "display_name": "Mine 272 (Umred, Nagpur, Maharashtra)" }, "geometry": { "type": "Point", "coordinates": [ 79.314326448, 20.781423519 ] } },
{ "type": "Feature", "properties": { "mine_id": 273, "state": "Maharashtra", "district": "Nagpur", "subdistrict": "Umred", "display_name": "Mine 273 (Umred, Nagpur, Maharashtra)" }, "geometry": { "type": "Point", "coordinates": [ 79.307043075099998, 20.7808492168 ] } },
{ "type": "Feature", "properties": { "mine_id": 274, "state": "Maharashtra", "district": "Nagpur", "subdistrict": "Umred", "display_name": "Mine 274 (Umred, Nagpur, Maharashtra)" }, "geometry": { "type": "Point", "coordinates": [ 79.304396908300006, 20.7735255017 ] } },
{ "type": "Feature", "properties": { "mine_id": 275, "state": "Maharashtra", "district": "Bhandara", "subdistrict": "Sakoli", "display_name": "Mine 275 (Sakoli, Bhandara, Maharashtra)" }, "geometry": { "type": "Point", "coordinates": [ 79.949160589300007, 21.040766311599999 ] } },
{ "type": "Feature", "properties": { "mine_id": 276, "state": "Maharashtra", "district": "Chandrapur", "subdistrict": "Nagbhir", "display_name": "Mine 276 (Nagbhir, Chandrapur, Maharashtra)" }, "geometry": { "type": "Point", "coordinates": [ 79.638350975700007, 20.642160582900001 ] } },
{ "type": "Feature", "properties": { "mine_id": 277, "state": "Madhya Pradesh", "district": "Katni", "subdistrict": "Sihora", "display_name": "Mine 277 (Sihora, Katni, Madhya Pradesh)" }, "geometry": { "type": "Point", "coordinates": [ 80.083331105599996, 23.3675938887 ] } },
{ "type": "Feature", "properties": { "mine_id": 278, "state": "Maharashtra", "district": "Nagpur", "subdistrict": "Hingana", "display_name": "Mine 278 (Hingana, Nagpur, Maharashtra)" }, "geometry": { "type": "Point", "coordinates": [ 78.853294099600006, 20.946352834300001 ] } },
{ "type": "Feature", "properties": { "mine_id": 279, "state": "Maharashtra", "district": "Nagpur", "subdistrict": "Hingana", "display_name": "Mine 279 (Hingana, Nagpur, Maharashtra)" }, "geometry": { "type": "Point", "coordinates": [ 78.855856959600004, 20.953391906099998 ] } },
{ "type": "Feature", "properties": { "mine_id": 280, "state": "Maharashtra", "district": "Nagpur", "subdistrict": "Hingana", "display_name": "Mine 280 (Hingana, Nagpur, Maharashtra)" }, "geometry": { "type": "Point", "coordinates": [ 78.857326428500002, 20.955253128399999 ] } },
{ "type": "Feature", "properties": { "mine_id": 281, "state": "Maharashtra", "district": "Nagpur", "subdistrict": "Hingana", "display_name": "Mine 281 (Hingana, Nagpur, Maharashtra)" }, "geometry": { "type": "Point", "coordinates": [ 78.867883676199995, 20.955663353199999 ] } },
{ "type": "Feature", "properties": { "mine_id": 282, "state": "Maharashtra", "district": "Nagpur", "subdistrict": "Umred", "display_name": "Mine 282 (Umred, Nagpur, Maharashtra)" }, "geometry": { "type": "Point", "coordinates": [ 79.209519983099995, 20.955063512100001 ] } },
{ "type": "Feature", "properties": { "mine_id": 283, "state": "Maharashtra", "district": "Nagpur", "subdistrict": "Umred", "display_name": "Mine 283 (Umred, Nagpur, Maharashtra)" }, "geometry": { "type": "Point", "coordinates": [ 79.218367895200004, 20.948211319599999 ] } },
{ "type": "Feature", "properties": { "mine_id": 284, "state": "Madhya Pradesh", "district": "Singrauli", "subdistrict": "Singrauli", "display_name": "Mine 284 (Singrauli, Singrauli, Madhya Pradesh)" }, "geometry": { "type": "Point", "coordinates": [ 82.433790691400006, 24.139410661100001 ] } },
{ "type": "Feature", "properties": { "mine_id": 285, "state": "Chhattisgarh", "district": "Korba", "subdistrict": "Katghora", "display_name": "Mine 285 (Katghora, Korba, Chhattisgarh)" }, "geometry": { "type": "Point", "coordinates": [ 82.671105262, 22.334399611 ] } },
{ "type": "Feature", "properties": { "mine_id": 286, "state": "Madhya Pradesh", "district": "Betul", "subdistrict": "Betul", "display_name": "Mine 286 (Betul, Betul, Madhya Pradesh)" }, "geometry": { "type": "Point", "coordinates": [ 78.1392251125, 22.142590562799999 ] } },
{ "type": "Feature", "properties": { "mine_id": 287, "state": "Maharashtra", "district": "Yavatmal", "subdistrict": "Wani", "display_name": "Mine 287 (Wani, Yavatmal, Maharashtra)" }, "geometry": { "type": "Point", "coordinates": [ 79.043834548, 20.047669257 ] } },
{ "type": "Feature", "properties": { "mine_id": 288, "state": "Maharashtra", "district": "Chandrapur", "subdistrict": "Rajura", "display_name": "Mine 288 (Rajura, Chandrapur, Maharashtra)" }, "geometry": { "type": "Point", "coordinates": [ 79.288280237500004, 19.7745510347 ] } },
{ "type": "Feature", "properties": { "mine_id": 289, "state": "Madhya Pradesh", "district": "Chhindwara", "subdistrict": "Parasia", "display_name": "Mine 289 (Parasia, Chhindwara, Madhya Pradesh)" }, "geometry": { "type": "Point", "coordinates": [ 78.768817235599997, 22.1803897986 ] } },
{ "type": "Feature", "properties": { "mine_id": 290, "state": "Madhya Pradesh", "district": "Betul", "subdistrict": "Betul", "display_name": "Mine 290 (Betul, Betul, Madhya Pradesh)" }, "geometry": { "type": "Point", "coordinates": [ 78.170534870699996, 22.1365283228 ] } },
{ "type": "Feature", "properties": { "mine_id": 291, "state": "Madhya Pradesh", "district": "Betul", "subdistrict": "Betul", "display_name": "Mine 291 (Betul, Betul, Madhya Pradesh)" }, "geometry": { "type": "Point", "coordinates": [ 78.191149069900007, 22.157031677 ] } },
{ "type": "Feature", "properties": { "mine_id": 292, "state": "Madhya Pradesh", "district": "Chhindwara", "subdistrict": "Parasia", "display_name": "Mine 292 (Parasia, Chhindwara, Madhya Pradesh)" }, "geometry": { "type": "Point", "coordinates": [ 78.313746989099997, 22.159255801600001 ] } },
{ "type": "Feature", "properties": { "mine_id": 293, "state": "Madhya Pradesh", "district": "Chhindwara", "subdistrict": "Parasia", "display_name": "Mine 293 (Parasia, Chhindwara, Madhya Pradesh)" }, "geometry": { "type": "Point", "coordinates": [ 78.321826764600004, 22.171359143 ] } },
{ "type": "Feature", "properties": { "mine_id": 294, "state": "Madhya Pradesh", "district": "Chhindwara", "subdistrict": "Parasia", "display_name": "Mine 294 (Parasia, Chhindwara, Madhya Pradesh)" }, "geometry": { "type": "Point", "coordinates": [ 78.456568909599994, 22.1993980206 ] } },
{ "type": "Feature", "properties": { "mine_id": 295, "state": "Madhya Pradesh", "district": "Chhindwara", "subdistrict": "Parasia", "display_name": "Mine 295 (Parasia, Chhindwara, Madhya Pradesh)" }, "geometry": { "type": "Point", "coordinates": [ 78.451688418499998, 22.1842972868 ] } },
{ "type": "Feature", "properties": { "mine_id": 296, "state": "Madhya Pradesh", "district": "Chhindwara", "subdistrict": "Parasia", "display_name": "Mine 296 (Parasia, Chhindwara, Madhya Pradesh)" }, "geometry": { "type": "Point", "coordinates": [ 78.480241849600006, 22.193596830200001 ] } },
{ "type": "Feature", "properties": { "mine_id": 297, "state": "Madhya Pradesh", "district": "Chhindwara", "subdistrict": "Parasia", "display_name": "Mine 297 (Parasia, Chhindwara, Madhya Pradesh)" }, "geometry": { "type": "Point", "coordinates": [ 78.583836242900006, 22.1983872132 ] } },
{ "type": "Feature", "properties": { "mine_id": 298, "state": "Madhya Pradesh", "district": "Chhindwara", "subdistrict": "Parasia", "display_name": "Mine 298 (Parasia, Chhindwara, Madhya Pradesh)" }, "geometry": { "type": "Point", "coordinates": [ 78.682696320600002, 22.1854113395 ] } },
{ "type": "Feature", "properties": { "mine_id": 299, "state": "Madhya Pradesh", "district": "Chhindwara", "subdistrict": "Parasia", "display_name": "Mine 299 (Parasia, Chhindwara, Madhya Pradesh)" }, "geometry": { "type": "Point", "coordinates": [ 78.677030730599995, 22.177725192600001 ] } },
{ "type": "Feature", "properties": { "mine_id": 300, "state": "Madhya Pradesh", "district": "Chhindwara", "subdistrict": "Parasia", "display_name": "Mine 300 (Parasia, Chhindwara, Madhya Pradesh)" }, "geometry": { "type": "Point", "coordinates": [ 78.704943276400002, 22.186435764100001 ] } },
{ "type": "Feature", "properties": { "mine_id": 301, "state": "Madhya Pradesh", "district": "Chhindwara", "subdistrict": "Parasia", "display_name": "Mine 301 (Parasia, Chhindwara, Madhya Pradesh)" }, "geometry": { "type": "Point", "coordinates": [ 78.937744555400002, 22.2289907806 ] } },
{ "type": "Feature", "properties": { "mine_id": 302, "state": "Madhya Pradesh", "district": "Chhindwara", "subdistrict": "Amarwara", "display_name": "Mine 302 (Amarwara, Chhindwara, Madhya Pradesh)" }, "geometry": { "type": "Point", "coordinates": [ 78.949459201600007, 22.239365189800001 ] } },
{ "type": "Feature", "properties": { "mine_id": 303, "state": "Madhya Pradesh", "district": "Chhindwara", "subdistrict": "Parasia", "display_name": "Mine 303 (Parasia, Chhindwara, Madhya Pradesh)" }, "geometry": { "type": "Point", "coordinates": [ 78.990083832300002, 22.281293323300002 ] } },
{ "type": "Feature", "properties": { "mine_id": 304, "state": "Madhya Pradesh", "district": "Chhindwara", "subdistrict": "Parasia", "display_name": "Mine 304 (Parasia, Chhindwara, Madhya Pradesh)" }, "geometry": { "type": "Point", "coordinates": [ 78.959647990500002, 22.276201369500001 ] } },
{ "type": "Feature", "properties": { "mine_id": 305, "state": "Madhya Pradesh", "district": "Chhindwara", "subdistrict": "Parasia", "display_name": "Mine 305 (Parasia, Chhindwara, Madhya Pradesh)" }, "geometry": { "type": "Point", "coordinates": [ 78.958279795, 22.2851436226 ] } },
{ "type": "Feature", "properties": { "mine_id": 306, "state": "Madhya Pradesh", "district": "Chhindwara", "subdistrict": "Parasia", "display_name": "Mine 306 (Parasia, Chhindwara, Madhya Pradesh)" }, "geometry": { "type": "Point", "coordinates": [ 78.410684853899994, 22.193726523300001 ] } },
{ "type": "Feature", "properties": { "mine_id": 307, "state": "Maharashtra", "district": "Nagpur", "subdistrict": "Bhiwapur", "display_name": "Mine 307 (Bhiwapur, Nagpur, Maharashtra)" }, "geometry": { "type": "Point", "coordinates": [ 79.303980634300004, 20.678124179099999 ] } },
{ "type": "Feature", "properties": { "mine_id": 308, "state": "Maharashtra", "district": "Nagpur", "subdistrict": "Hingana", "display_name": "Mine 308 (Hingana, Nagpur, Maharashtra)" }, "geometry": { "type": "Point", "coordinates": [ 79.029450385100006, 21.221286264100002 ] } },
{ "type": "Feature", "properties": { "mine_id": 309, "state": "Chhattisgarh", "district": "Korba", "subdistrict": "Katghora", "display_name": "Mine 309 (Katghora, Korba, Chhattisgarh)" }, "geometry": { "type": "Point", "coordinates": [ 82.663119085100007, 22.365681010599999 ] } },
{ "type": "Feature", "properties": { "mine_id": 310, "state": "Chhattisgarh", "district": "Korba", "subdistrict": "Katghora", "display_name": "Mine 310 (Katghora, Korba, Chhattisgarh)" }, "geometry": { "type": "Point", "coordinates": [ 82.645289887499999, 22.489399000100001 ] } },
{ "type": "Feature", "properties": { "mine_id": 311, "state": "Chhattisgarh", "district": "Bilaspur", "subdistrict": "Bilaspur", "display_name": "Mine 311 (Bilaspur, Bilaspur, Chhattisgarh)" }, "geometry": { "type": "Point", "coordinates": [ 82.284345801499995, 22.084868149599998 ] } },
{ "type": "Feature", "properties": { "mine_id": 312, "state": "Madhya Pradesh", "district": "Anuppur", "subdistrict": "Anuppur", "display_name": "Mine 312 (Anuppur, Anuppur, Madhya Pradesh)" }, "geometry": { "type": "Point", "coordinates": [ 81.814587588199998, 23.114983837099999 ] } },
{ "type": "Feature", "properties": { "mine_id": 313, "state": "Madhya Pradesh", "district": "Chhindwara", "subdistrict": "Parasia", "display_name": "Mine 313 (Parasia, Chhindwara, Madhya Pradesh)" }, "geometry": { "type": "Point", "coordinates": [ 78.772588407900002, 22.1925070357 ] } },
{ "type": "Feature", "properties": { "mine_id": 314, "state": "Madhya Pradesh", "district": "Chhindwara", "subdistrict": "Parasia", "display_name": "Mine 314 (Parasia, Chhindwara, Madhya Pradesh)" }, "geometry": { "type": "Point", "coordinates": [ 78.8380969464, 22.204348362200001 ] } },
{ "type": "Feature", "properties": { "mine_id": 315, "state": "Maharashtra", "district": "Bhandara", "subdistrict": "Pawni", "display_name": "Mine 315 (Pawni, Bhandara, Maharashtra)" }, "geometry": { "type": "Point", "coordinates": [ 79.720597228399996, 20.960771837100001 ] } },
{ "type": "Feature", "properties": { "mine_id": 316, "state": "Madhya Pradesh", "district": "Jabalpur", "subdistrict": "Jabalpur", "display_name": "Mine 316 (Jabalpur, Jabalpur, Madhya Pradesh)" }, "geometry": { "type": "Point", "coordinates": [ 80.093424620799993, 23.119219506499999 ] } },
{ "type": "Feature", "properties": { "mine_id": 317, "state": "Madhya Pradesh", "district": "Anuppur", "subdistrict": "Anuppur", "display_name": "Mine 317 (Anuppur, Anuppur, Madhya Pradesh)" }, "geometry": { "type": "Point", "coordinates": [ 82.133840737900002, 23.150549018 ] } },
{ "type": "Feature", "properties": { "mine_id": 318, "state": "Madhya Pradesh", "district": "Anuppur", "subdistrict": "Anuppur", "display_name": "Mine 318 (Anuppur, Anuppur, Madhya Pradesh)" }, "geometry": { "type": "Point", "coordinates": [ 82.149663462299998, 23.152096588100001 ] } },
{ "type": "Feature", "properties": { "mine_id": 319, "state": "Maharashtra", "district": "Chandrapur", "subdistrict": "Bhadravathi", "display_name": "Mine 319 (Bhadravathi, Chandrapur, Maharashtra)" }, "geometry": { "type": "Point", "coordinates": [ 79.048537754600005, 20.2081321181 ] } },
{ "type": "Feature", "properties": { "mine_id": 320, "state": "Maharashtra", "district": "Yavatmal", "subdistrict": "Wani", "display_name": "Mine 320 (Wani, Yavatmal, Maharashtra)" }, "geometry": { "type": "Point", "coordinates": [ 79.096101188700004, 19.863970715400001 ] } },
{ "type": "Feature", "properties": { "mine_id": 321, "state": "Maharashtra", "district": "Chandrapur", "subdistrict": "Chandrapur", "display_name": "Mine 321 (Chandrapur, Chandrapur, Maharashtra)" }, "geometry": { "type": "Point", "coordinates": [ 79.271758530200003, 20.0602308347 ] } },
{ "type": "Feature", "properties": { "mine_id": 322, "state": "Madhya Pradesh", "district": "Betul", "subdistrict": "Betul", "display_name": "Mine 322 (Betul, Betul, Madhya Pradesh)" }, "geometry": { "type": "Point", "coordinates": [ 78.171523057200005, 22.113761508 ] } },
{ "type": "Feature", "properties": { "mine_id": 323, "state": "Madhya Pradesh", "district": "Sagar", "subdistrict": "Khurai", "display_name": "Mine 323 (Khurai, Sagar, Madhya Pradesh)" }, "geometry": { "type": "Point", "coordinates": [ 78.132543806200005, 24.318195875 ] } },
{ "type": "Feature", "properties": { "mine_id": 324, "state": "Chhattisgarh", "district": "Korba", "subdistrict": "Katghora", "display_name": "Mine 324 (Katghora, Korba, Chhattisgarh)" }, "geometry": { "type": "Point", "coordinates": [ 82.675181716500006, 22.3945928178 ] } },
{ "type": "Feature", "properties": { "mine_id": 325, "state": "Chhattisgarh", "district": "Korba", "subdistrict": "Katghora", "display_name": "Mine 325 (Katghora, Korba, Chhattisgarh)" }, "geometry": { "type": "Point", "coordinates": [ 82.684010992400005, 22.385739018900001 ] } },
{ "type": "Feature", "properties": { "mine_id": 326, "state": "Chhattisgarh", "district": "Korba", "subdistrict": "Katghora", "display_name": "Mine 326 (Katghora, Korba, Chhattisgarh)" }, "geometry": { "type": "Point", "coordinates": [ 82.683330973, 22.41368255 ] } },
{ "type": "Feature", "properties": { "mine_id": 327, "state": "Chhattisgarh", "district": "Korba", "subdistrict": "Korba", "display_name": "Mine 327 (Korba, Korba, Chhattisgarh)" }, "geometry": { "type": "Point", "coordinates": [ 82.721205564800002, 22.370347831099998 ] } },
{ "type": "Feature", "properties": { "mine_id": 328, "state": "Maharashtra", "district": "Chandrapur", "subdistrict": "Warora", "display_name": "Mine 328 (Warora, Chandrapur, Maharashtra)" }, "geometry": { "type": "Point", "coordinates": [ 78.978989086200002, 20.277502221399999 ] } },
{ "type": "Feature", "properties": { "mine_id": 329, "state": "Maharashtra", "district": "Chandrapur", "subdistrict": "Chandrapur", "display_name": "Mine 329 (Chandrapur, Chandrapur, Maharashtra)" }, "geometry": { "type": "Point", "coordinates": [ 79.1341951526, 19.929666111300001 ] } },
{ "type": "Feature", "properties": { "mine_id": 330, "state": "Maharashtra", "district": "Nagpur", "subdistrict": "Savner", "display_name": "Mine 330 (Savner, Nagpur, Maharashtra)" }, "geometry": { "type": "Point", "coordinates": [ 79.119871769100001, 21.277047484 ] } },
{ "type": "Feature", "properties": { "mine_id": 331, "state": "Maharashtra", "district": "Nagpur", "subdistrict": "Kamthi", "display_name": "Mine 331 (Kamthi, Nagpur, Maharashtra)" }, "geometry": { "type": "Point", "coordinates": [ 79.095752514899999, 21.2400332086 ] } },
{ "type": "Feature", "properties": { "mine_id": 332, "state": "Maharashtra", "district": "Nagpur", "subdistrict": "Hingana", "display_name": "Mine 332 (Hingana, Nagpur, Maharashtra)" }, "geometry": { "type": "Point", "coordinates": [ 78.934227374599999, 21.037023757699998 ] } },
{ "type": "Feature", "properties": { "mine_id": 333, "state": "Maharashtra", "district": "Akola", "subdistrict": "Akola", "display_name": "Mine 333 (Akola, Akola, Maharashtra)" }, "geometry": { "type": "Point", "coordinates": [ 76.794483538500003, 20.715705757599999 ] } },
{ "type": "Feature", "properties": { "mine_id": 334, "state": "Chhattisgarh", "district": "Bilaspur", "subdistrict": "Bilaspur", "display_name": "Mine 334 (Bilaspur, Bilaspur, Chhattisgarh)" }, "geometry": { "type": "Point", "coordinates": [ 82.296413683699996, 22.1324723418 ] } },
{ "type": "Feature", "properties": { "mine_id": 335, "state": "Maharashtra", "district": "Gondiya", "subdistrict": "Tirora", "display_name": "Mine 335 (Tirora, Gondiya, Maharashtra)" }, "geometry": { "type": "Point", "coordinates": [ 79.969605356499997, 21.412919864799999 ] } },
{ "type": "Feature", "properties": { "mine_id": 336, "state": "Madhya Pradesh", "district": "Singrauli", "subdistrict": "Singrauli", "display_name": "Mine 336 (Singrauli, Singrauli, Madhya Pradesh)" }, "geometry": { "type": "Point", "coordinates": [ 82.705775829, 24.057133905 ] } },
{ "type": "Feature", "properties": { "mine_id": 337, "state": "Maharashtra", "district": "Chandrapur", "subdistrict": "Chandrapur", "display_name": "Mine 337 (Chandrapur, Chandrapur, Maharashtra)" }, "geometry": { "type": "Point", "coordinates": [ 79.290840564800007, 19.997790718299999 ] } },
{ "type": "Feature", "properties": { "mine_id": 338, "state": "Chhattisgarh", "district": "Korba", "subdistrict": "Katghora", "display_name": "Mine 338 (Katghora, Korba, Chhattisgarh)" }, "geometry": { "type": "Point", "coordinates": [ 82.558848876200003, 22.338490691499999 ] } },
{ "type": "Feature", "properties": { "mine_id": 339, "state": "Maharashtra", "district": "Chandrapur", "subdistrict": "Chandrapur", "display_name": "Mine 339 (Chandrapur, Chandrapur, Maharashtra)" }, "geometry": { "type": "Point", "coordinates": [ 79.305952900099996, 19.917908155399999 ] } },
{ "type": "Feature", "properties": { "mine_id": 340, "state": "Madhya Pradesh", "district": "Rewa", "subdistrict": "Rewa", "display_name": "Mine 340 (Rewa, Rewa, Madhya Pradesh)" }, "geometry": { "type": "Point", "coordinates": [ 81.197791805400001, 24.606756322300001 ] } },
{ "type": "Feature", "properties": { "mine_id": 341, "state": "Madhya Pradesh", "district": "Rewa", "subdistrict": "Rewa", "display_name": "Mine 341 (Rewa, Rewa, Madhya Pradesh)" }, "geometry": { "type": "Point", "coordinates": [ 81.207643806799993, 24.600783528200001 ] } },
{ "type": "Feature", "properties": { "mine_id": 342, "state": "Madhya Pradesh", "district": "Rewa", "subdistrict": "Rewa", "display_name": "Mine 342 (Rewa, Rewa, Madhya Pradesh)" }, "geometry": { "type": "Point", "coordinates": [ 81.190517149399994, 24.618767456499999 ] } },
{ "type": "Feature", "properties": { "mine_id": 343, "state": "Madhya Pradesh", "district": "Rewa", "subdistrict": "Rewa", "display_name": "Mine 343 (Rewa, Rewa, Madhya Pradesh)" }, "geometry": { "type": "Point", "coordinates": [ 81.175035409100005, 24.6258977737 ] } },
{ "type": "Feature", "properties": { "mine_id": 344, "state": "Madhya Pradesh", "district": "Rewa", "subdistrict": "Rewa", "display_name": "Mine 344 (Rewa, Rewa, Madhya Pradesh)" }, "geometry": { "type": "Point", "coordinates": [ 81.216131208799993, 24.624404392199999 ] } },
{ "type": "Feature", "properties": { "mine_id": 345, "state": "Madhya Pradesh", "district": "Mandla", "subdistrict": "Mandla", "display_name": "Mine 345 (Mandla, Mandla, Madhya Pradesh)" }, "geometry": { "type": "Point", "coordinates": [ 80.411415630500002, 22.444345757600001 ] } },
{ "type": "Feature", "properties": { "mine_id": 346, "state": "Madhya Pradesh", "district": "Chhindwara", "subdistrict": "Parasia", "display_name": "Mine 346 (Parasia, Chhindwara, Madhya Pradesh)" }, "geometry": { "type": "Point", "coordinates": [ 78.840893603300003, 22.212925886299999 ] } },
{ "type": "Feature", "properties": { "mine_id": 347, "state": "Madhya Pradesh", "district": "Rewa", "subdistrict": "Sirmaur", "display_name": "Mine 347 (Sirmaur, Rewa, Madhya Pradesh)" }, "geometry": { "type": "Point", "coordinates": [ 81.153847176300005, 24.85849996 ] } },
{ "type": "Feature", "properties": { "mine_id": 348, "state": "Madhya Pradesh", "district": "Katni", "subdistrict": "Murwara", "display_name": "Mine 348 (Murwara, Katni, Madhya Pradesh)" }, "geometry": { "type": "Point", "coordinates": [ 80.454958796100001, 23.681697374199999 ] } },
{ "type": "Feature", "properties": { "mine_id": 349, "state": "Madhya Pradesh", "district": "Katni", "subdistrict": "Sihora", "display_name": "Mine 349 (Sihora, Katni, Madhya Pradesh)" }, "geometry": { "type": "Point", "coordinates": [ 80.193468392, 23.5270332469 ] } },
{ "type": "Feature", "properties": { "mine_id": 350, "state": "Madhya Pradesh", "district": "Katni", "subdistrict": "Sihora", "display_name": "Mine 350 (Sihora, Katni, Madhya Pradesh)" }, "geometry": { "type": "Point", "coordinates": [ 80.152632177100003, 23.574828910800001 ] } },
{ "type": "Feature", "properties": { "mine_id": 351, "state": "Madhya Pradesh", "district": "Katni", "subdistrict": "Sihora", "display_name": "Mine 351 (Sihora, Katni, Madhya Pradesh)" }, "geometry": { "type": "Point", "coordinates": [ 80.236017791199998, 23.659583065300001 ] } },
{ "type": "Feature", "properties": { "mine_id": 352, "state": "Madhya Pradesh", "district": "Katni", "subdistrict": "Sihora", "display_name": "Mine 352 (Sihora, Katni, Madhya Pradesh)" }, "geometry": { "type": "Point", "coordinates": [ 80.262614031400005, 23.6433582732 ] } },
{ "type": "Feature", "properties": { "mine_id": 353, "state": "Madhya Pradesh", "district": "Satna", "subdistrict": "Satna", "display_name": "Mine 353 (Satna, Satna, Madhya Pradesh)" }, "geometry": { "type": "Point", "coordinates": [ 80.957762576600004, 24.841408206899999 ] } },
{ "type": "Feature", "properties": { "mine_id": 354, "state": "Madhya Pradesh", "district": "Sidhi", "subdistrict": "Sidhi", "display_name": "Mine 354 (Sidhi, Sidhi, Madhya Pradesh)" }, "geometry": { "type": "Point", "coordinates": [ 81.541018232400006, 24.158545855 ] } },
{ "type": "Feature", "properties": { "mine_id": 355, "state": "Madhya Pradesh", "district": "Sidhi", "subdistrict": "Sidhi", "display_name": "Mine 355 (Sidhi, Sidhi, Madhya Pradesh)" }, "geometry": { "type": "Point", "coordinates": [ 81.544569143199993, 24.160344024 ] } },
{ "type": "Feature", "properties": { "mine_id": 356, "state": "Madhya Pradesh", "district": "Satna", "subdistrict": "Maihar", "display_name": "Mine 356 (Maihar, Satna, Madhya Pradesh)" }, "geometry": { "type": "Point", "coordinates": [ 80.865699275400004, 24.2696943015 ] } },
{ "type": "Feature", "properties": { "mine_id": 357, "state": "Madhya Pradesh", "district": "Satna", "subdistrict": "Maihar", "display_name": "Mine 357 (Maihar, Satna, Madhya Pradesh)" }, "geometry": { "type": "Point", "coordinates": [ 80.878857655, 24.270654078 ] } },
{ "type": "Feature", "properties": { "mine_id": 358, "state": "Chhattisgarh", "district": "Bilaspur", "subdistrict": "Takhatpur", "display_name": "Mine 358 (Takhatpur, Bilaspur, Chhattisgarh)" }, "geometry": { "type": "Point", "coordinates": [ 81.790185084699999, 22.237867287699999 ] } },
{ "type": "Feature", "properties": { "mine_id": 359, "state": "Chhattisgarh", "district": "Rajnandgaon", "subdistrict": "Khairagarh", "display_name": "Mine 359 (Khairagarh, Rajnandgaon, Chhattisgarh)" }, "geometry": { "type": "Point", "coordinates": [ 80.956379820699993, 21.354104494600001 ] } },
{ "type": "Feature", "properties": { "mine_id": 360, "state": "Chhattisgarh", "district": "Rajnandgaon", "subdistrict": "Khairagarh", "display_name": "Mine 360 (Khairagarh, Rajnandgaon, Chhattisgarh)" }, "geometry": { "type": "Point", "coordinates": [ 80.966477447900004, 21.3444738777 ] } },
{ "type": "Feature", "properties": { "mine_id": 361, "state": "Madhya Pradesh", "district": "Balaghat", "subdistrict": "Waraseoni", "display_name": "Mine 361 (Waraseoni, Balaghat, Madhya Pradesh)" }, "geometry": { "type": "Point", "coordinates": [ 80.161359190699997, 21.650940184700001 ] } },
{ "type": "Feature", "properties": { "mine_id": 362, "state": "Madhya Pradesh", "district": "Satna", "subdistrict": "Maihar", "display_name": "Mine 362 (Maihar, Satna, Madhya Pradesh)" }, "geometry": { "type": "Point", "coordinates": [ 80.875682653699997, 24.285785977500002 ] } },
{ "type": "Feature", "properties": { "mine_id": 363, "state": "Madhya Pradesh", "district": "Katni", "subdistrict": "Sihora", "display_name": "Mine 363 (Sihora, Katni, Madhya Pradesh)" }, "geometry": { "type": "Point", "coordinates": [ 80.2251517917, 23.6868899151 ] } },
{ "type": "Feature", "properties": { "mine_id": 364, "state": "Madhya Pradesh", "district": "Katni", "subdistrict": "Sihora", "display_name": "Mine 364 (Sihora, Katni, Madhya Pradesh)" }, "geometry": { "type": "Point", "coordinates": [ 80.220128080400002, 23.684150186499998 ] } },
{ "type": "Feature", "properties": { "mine_id": 365, "state": "Madhya Pradesh", "district": "Rewa", "subdistrict": "Rewa", "display_name": "Mine 365 (Rewa, Rewa, Madhya Pradesh)" }, "geometry": { "type": "Point", "coordinates": [ 81.182228621500002, 24.572558613399998 ] } },
{ "type": "Feature", "properties": { "mine_id": 366, "state": "Madhya Pradesh", "district": "Katni", "subdistrict": "Sihora", "display_name": "Mine 366 (Sihora, Katni, Madhya Pradesh)" }, "geometry": { "type": "Point", "coordinates": [ 80.180466395099998, 23.628255419 ] } },
{ "type": "Feature", "properties": { "mine_id": 367, "state": "Madhya Pradesh", "district": "Katni", "subdistrict": "Sihora", "display_name": "Mine 367 (Sihora, Katni, Madhya Pradesh)" }, "geometry": { "type": "Point", "coordinates": [ 80.111741104299995, 23.5812121463 ] } },
{ "type": "Feature", "properties": { "mine_id": 368, "state": "Madhya Pradesh", "district": "Katni", "subdistrict": "Sihora", "display_name": "Mine 368 (Sihora, Katni, Madhya Pradesh)" }, "geometry": { "type": "Point", "coordinates": [ 80.186519970600003, 23.591832773699998 ] } },
{ "type": "Feature", "properties": { "mine_id": 369, "state": "Madhya Pradesh", "district": "Katni", "subdistrict": "Sihora", "display_name": "Mine 369 (Sihora, Katni, Madhya Pradesh)" }, "geometry": { "type": "Point", "coordinates": [ 80.176311413799993, 23.598254120699998 ] } },
{ "type": "Feature", "properties": { "mine_id": 370, "state": "Madhya Pradesh", "district": "Katni", "subdistrict": "Sihora", "display_name": "Mine 370 (Sihora, Katni, Madhya Pradesh)" }, "geometry": { "type": "Point", "coordinates": [ 80.221686762700003, 23.622359231400001 ] } },
{ "type": "Feature", "properties": { "mine_id": 371, "state": "Madhya Pradesh", "district": "Katni", "subdistrict": "Murwara", "display_name": "Mine 371 (Murwara, Katni, Madhya Pradesh)" }, "geometry": { "type": "Point", "coordinates": [ 80.456779432399998, 23.975011542600001 ] } },
{ "type": "Feature", "properties": { "mine_id": 372, "state": "Madhya Pradesh", "district": "Shahdol", "subdistrict": "Shahdol", "display_name": "Mine 372 (Shahdol, Shahdol, Madhya Pradesh)" }, "geometry": { "type": "Point", "coordinates": [ 81.4973241637, 23.285068712800001 ] } },
{ "type": "Feature", "properties": { "mine_id": 373, "state": "Madhya Pradesh", "district": "Umaria", "subdistrict": "Bandhogarh", "display_name": "Mine 373 (Bandhogarh, Umaria, Madhya Pradesh)" }, "geometry": { "type": "Point", "coordinates": [ 80.870392073, 23.344915622599999 ] } },
{ "type": "Feature", "properties": { "mine_id": 374, "state": "Madhya Pradesh", "district": "Shahdol", "subdistrict": "Shahdol", "display_name": "Mine 374 (Shahdol, Shahdol, Madhya Pradesh)" }, "geometry": { "type": "Point", "coordinates": [ 81.5689907159, 23.157303257300001 ] } },
{ "type": "Feature", "properties": { "mine_id": 375, "state": "Madhya Pradesh", "district": "Balaghat", "subdistrict": "Waraseoni", "display_name": "Mine 375 (Waraseoni, Balaghat, Madhya Pradesh)" }, "geometry": { "type": "Point", "coordinates": [ 80.104132658899999, 21.8039507915 ] } },
{ "type": "Feature", "properties": { "mine_id": 376, "state": "Madhya Pradesh", "district": "Katni", "subdistrict": "Sihora", "display_name": "Mine 376 (Sihora, Katni, Madhya Pradesh)" }, "geometry": { "type": "Point", "coordinates": [ 80.144534417, 23.378619028 ] } },
{ "type": "Feature", "properties": { "mine_id": 377, "state": "Madhya Pradesh", "district": "Katni", "subdistrict": "Sihora", "display_name": "Mine 377 (Sihora, Katni, Madhya Pradesh)" }, "geometry": { "type": "Point", "coordinates": [ 80.158612830799996, 23.3602630036 ] } },
{ "type": "Feature", "properties": { "mine_id": 378, "state": "Madhya Pradesh", "district": "Shahdol", "subdistrict": "Shahdol", "display_name": "Mine 378 (Shahdol, Shahdol, Madhya Pradesh)" }, "geometry": { "type": "Point", "coordinates": [ 81.066267038399999, 23.306600701 ] } },
{ "type": "Feature", "properties": { "mine_id": 379, "state": "Madhya Pradesh", "district": "Anuppur", "subdistrict": "Anuppur", "display_name": "Mine 379 (Anuppur, Anuppur, Madhya Pradesh)" }, "geometry": { "type": "Point", "coordinates": [ 81.790599856900002, 23.068764924900002 ] } },
{ "type": "Feature", "properties": { "mine_id": 380, "state": "Maharashtra", "district": "Chandrapur", "subdistrict": "Chandrapur", "display_name": "Mine 380 (Chandrapur, Chandrapur, Maharashtra)" }, "geometry": { "type": "Point", "coordinates": [ 79.311126032399997, 20.023576916900002 ] } },
{ "type": "Feature", "properties": { "mine_id": 381, "state": "Chhattisgarh", "district": "Koriya", "subdistrict": "Manendragarh", "display_name": "Mine 381 (Manendragarh, Koriya, Chhattisgarh)" }, "geometry": { "type": "Point", "coordinates": [ 82.363401115800002, 23.182828783400002 ] } },
{ "type": "Feature", "properties": { "mine_id": 382, "state": "Madhya Pradesh", "district": "Anuppur", "subdistrict": "Anuppur", "display_name": "Mine 382 (Anuppur, Anuppur, Madhya Pradesh)" }, "geometry": { "type": "Point", "coordinates": [ 82.129665747100006, 23.205376904800001 ] } },
{ "type": "Feature", "properties": { "mine_id": 383, "state": "Maharashtra", "district": "Chandrapur", "subdistrict": "Chandrapur", "display_name": "Mine 383 (Chandrapur, Chandrapur, Maharashtra)" }, "geometry": { "type": "Point", "coordinates": [ 79.3463373684, 19.831321831299999 ] } },
{ "type": "Feature", "properties": { "mine_id": 384, "state": "Chhattisgarh", "district": "Korba", "subdistrict": "Korba", "display_name": "Mine 384 (Korba, Korba, Chhattisgarh)" }, "geometry": { "type": "Point", "coordinates": [ 82.732307731800006, 22.322162517100001 ] } },
{ "type": "Feature", "properties": { "mine_id": 385, "state": "Madhya Pradesh", "district": "Balaghat", "subdistrict": "Waraseoni", "display_name": "Mine 385 (Waraseoni, Balaghat, Madhya Pradesh)" }, "geometry": { "type": "Point", "coordinates": [ 79.724700738300001, 21.6814649053 ] } },
{ "type": "Feature", "properties": { "mine_id": 386, "state": "Maharashtra", "district": "Bhandara", "subdistrict": "Tumsar", "display_name": "Mine 386 (Tumsar, Bhandara, Maharashtra)" }, "geometry": { "type": "Point", "coordinates": [ 79.751255302100006, 21.545224170099999 ] } },
{ "type": "Feature", "properties": { "mine_id": 387, "state": "Maharashtra", "district": "Chandrapur", "subdistrict": "Chandrapur", "display_name": "Mine 387 (Chandrapur, Chandrapur, Maharashtra)" }, "geometry": { "type": "Point", "coordinates": [ 79.1060861176, 19.935244180600002 ] } },
{ "type": "Feature", "properties": { "mine_id": 388, "state": "Maharashtra", "district": "Nagpur", "subdistrict": "Hingana", "display_name": "Mine 388 (Hingana, Nagpur, Maharashtra)" }, "geometry": { "type": "Point", "coordinates": [ 78.870294074599997, 21.076494089499999 ] } },
{ "type": "Feature", "properties": { "mine_id": 389, "state": "Madhya Pradesh", "district": "Betul", "subdistrict": "Betul", "display_name": "Mine 389 (Betul, Betul, Madhya Pradesh)" }, "geometry": { "type": "Point", "coordinates": [ 78.145540619900004, 22.1068112064 ] } },
{ "type": "Feature", "properties": { "mine_id": 390, "state": "Maharashtra", "district": "Amravati", "subdistrict": "Amravati", "display_name": "Mine 390 (Amravati, Amravati, Maharashtra)" }, "geometry": { "type": "Point", "coordinates": [ 77.8997711329, 21.0728179394 ] } },
{ "type": "Feature", "properties": { "mine_id": 391, "state": "Maharashtra", "district": "Nagpur", "subdistrict": "Savner", "display_name": "Mine 391 (Savner, Nagpur, Maharashtra)" }, "geometry": { "type": "Point", "coordinates": [ 79.022809924, 21.416217087 ] } },
{ "type": "Feature", "properties": { "mine_id": 392, "state": "Madhya Pradesh", "district": "Sagar", "subdistrict": "Banda", "display_name": "Mine 392 (Banda, Sagar, Madhya Pradesh)" }, "geometry": { "type": "Point", "coordinates": [ 79.168783019, 24.3692000492 ] } },
{ "type": "Feature", "properties": { "mine_id": 393, "state": "Madhya Pradesh", "district": "Balaghat", "subdistrict": "Waraseoni", "display_name": "Mine 393 (Waraseoni, Balaghat, Madhya Pradesh)" }, "geometry": { "type": "Point", "coordinates": [ 79.559213442699999, 21.6296877829 ] } },
{ "type": "Feature", "properties": { "mine_id": 394, "state": "Madhya Pradesh", "district": "Sagar", "subdistrict": "Rehli", "display_name": "Mine 394 (Rehli, Sagar, Madhya Pradesh)" }, "geometry": { "type": "Point", "coordinates": [ 78.990402658799994, 23.442694245599998 ] } },
{ "type": "Feature", "properties": { "mine_id": 395, "state": "Maharashtra", "district": "Nagpur", "subdistrict": "Ramtek", "display_name": "Mine 395 (Ramtek, Nagpur, Maharashtra)" }, "geometry": { "type": "Point", "coordinates": [ 79.267095047400005, 21.412163875800001 ] } },
{ "type": "Feature", "properties": { "mine_id": 396, "state": "Madhya Pradesh", "district": "Chhindwara", "subdistrict": "Parasia", "display_name": "Mine 396 (Parasia, Chhindwara, Madhya Pradesh)" }, "geometry": { "type": "Point", "coordinates": [ 78.889071739900004, 22.210355439499999 ] } },
{ "type": "Feature", "properties": { "mine_id": 397, "state": "Maharashtra", "district": "Nagpur", "subdistrict": "Hingana", "display_name": "Mine 397 (Hingana, Nagpur, Maharashtra)" }, "geometry": { "type": "Point", "coordinates": [ 78.882978144500001, 21.0814841167 ] } },
{ "type": "Feature", "properties": { "mine_id": 398, "state": "Maharashtra", "district": "Bhandara", "subdistrict": "Tumsar", "display_name": "Mine 398 (Tumsar, Bhandara, Maharashtra)" }, "geometry": { "type": "Point", "coordinates": [ 79.681756308199994, 21.5482785216 ] } },
{ "type": "Feature", "properties": { "mine_id": 399, "state": "Madhya Pradesh", "district": "Anuppur", "subdistrict": "Anuppur", "display_name": "Mine 399 (Anuppur, Anuppur, Madhya Pradesh)" }, "geometry": { "type": "Point", "coordinates": [ 81.902527657, 23.165592174 ] } },
{ "type": "Feature", "properties": { "mine_id": 400, "state": "Maharashtra", "district": "Chandrapur", "subdistrict": "Rajura", "display_name": "Mine 400 (Rajura, Chandrapur, Maharashtra)" }, "geometry": { "type": "Point", "coordinates": [ 79.206723826200005, 19.705321722800001 ] } },
{ "type": "Feature", "properties": { "mine_id": 401, "state": "Madhya Pradesh", "district": "Rewa", "subdistrict": "Rewa", "display_name": "Mine 401 (Rewa, Rewa, Madhya Pradesh)" }, "geometry": { "type": "Point", "coordinates": [ 81.194270924400001, 24.616793919300001 ] } },
{ "type": "Feature", "properties": { "mine_id": 402, "state": "Maharashtra", "district": "Nagpur", "subdistrict": "Hingana", "display_name": "Mine 402 (Hingana, Nagpur, Maharashtra)" }, "geometry": { "type": "Point", "coordinates": [ 79.041974135199993, 21.224864320599998 ] } },
{ "type": "Feature", "properties": { "mine_id": 403, "state": "Maharashtra", "district": "Nagpur", "subdistrict": "Savner", "display_name": "Mine 403 (Savner, Nagpur, Maharashtra)" }, "geometry": { "type": "Point", "coordinates": [ 78.950826715, 21.498663954800001 ] } },
{ "type": "Feature", "properties": { "mine_id": 404, "state": "Madhya Pradesh", "district": "Satna", "subdistrict": "Satna", "display_name": "Mine 404 (Satna, Satna, Madhya Pradesh)" }, "geometry": { "type": "Point", "coordinates": [ 81.000224207200006, 24.574898672900002 ] } },
{ "type": "Feature", "properties": { "mine_id": 405, "state": "Madhya Pradesh", "district": "Mandla", "subdistrict": "Mandla", "display_name": "Mine 405 (Mandla, Mandla, Madhya Pradesh)" }, "geometry": { "type": "Point", "coordinates": [ 80.439898744299995, 22.4721758393 ] } },
{ "type": "Feature", "properties": { "mine_id": 406, "state": "Madhya Pradesh", "district": "Shahdol", "subdistrict": "Beohari", "display_name": "Mine 406 (Beohari, Shahdol, Madhya Pradesh)" }, "geometry": { "type": "Point", "coordinates": [ 81.314267309599998, 24.0441846306 ] } },
{ "type": "Feature", "properties": { "mine_id": 407, "state": "Madhya Pradesh", "district": "Satna", "subdistrict": "Amarpatan", "display_name": "Mine 407 (Amarpatan, Satna, Madhya Pradesh)" }, "geometry": { "type": "Point", "coordinates": [ 81.170566582299998, 24.447911093599998 ] } },
{ "type": "Feature", "properties": { "mine_id": 408, "state": "Madhya Pradesh", "district": "Satna", "subdistrict": "Satna", "display_name": "Mine 408 (Satna, Satna, Madhya Pradesh)" }, "geometry": { "type": "Point", "coordinates": [ 80.913832874400001, 24.8776269305 ] } },
{ "type": "Feature", "properties": { "mine_id": 409, "state": "Madhya Pradesh", "district": "Satna", "subdistrict": "Maihar", "display_name": "Mine 409 (Maihar, Satna, Madhya Pradesh)" }, "geometry": { "type": "Point", "coordinates": [ 80.874382333400007, 24.273160244500001 ] } },
{ "type": "Feature", "properties": { "mine_id": 410, "state": "Madhya Pradesh", "district": "Satna", "subdistrict": "Maihar", "display_name": "Mine 410 (Maihar, Satna, Madhya Pradesh)" }, "geometry": { "type": "Point", "coordinates": [ 80.904345923700006, 24.258079220599999 ] } },
{ "type": "Feature", "properties": { "mine_id": 411, "state": "Chhattisgarh", "district": "Rajnandgaon", "subdistrict": "Khairagarh", "display_name": "Mine 411 (Khairagarh, Rajnandgaon, Chhattisgarh)" }, "geometry": { "type": "Point", "coordinates": [ 80.969383374900005, 21.340655013700001 ] } },
{ "type": "Feature", "properties": { "mine_id": 412, "state": "Madhya Pradesh", "district": "Satna", "subdistrict": "Satna", "display_name": "Mine 412 (Satna, Satna, Madhya Pradesh)" }, "geometry": { "type": "Point", "coordinates": [ 80.947686698699997, 24.618507381200001 ] } },
{ "type": "Feature", "properties": { "mine_id": 413, "state": "Madhya Pradesh", "district": "Satna", "subdistrict": "Maihar", "display_name": "Mine 413 (Maihar, Satna, Madhya Pradesh)" }, "geometry": { "type": "Point", "coordinates": [ 80.833071917200002, 24.1492548537 ] } },
{ "type": "Feature", "properties": { "mine_id": 414, "state": "Maharashtra", "district": "Chandrapur", "subdistrict": "Rajura", "display_name": "Mine 414 (Rajura, Chandrapur, Maharashtra)" }, "geometry": { "type": "Point", "coordinates": [ 79.338592747500002, 19.822253633900001 ] } },
{ "type": "Feature", "properties": { "mine_id": 415, "state": "Chhattisgarh", "district": "Korba", "subdistrict": "Katghora", "display_name": "Mine 415 (Katghora, Korba, Chhattisgarh)" }, "geometry": { "type": "Point", "coordinates": [ 82.669791687699998, 22.457639139 ] } },
{ "type": "Feature", "properties": { "mine_id": 416, "state": "Maharashtra", "district": "Nagpur", "subdistrict": "Hingana", "display_name": "Mine 416 (Hingana, Nagpur, Maharashtra)" }, "geometry": { "type": "Point", "coordinates": [ 79.034812758100003, 21.225199668799998 ] } },
{ "type": "Feature", "properties": { "mine_id": 417, "state": "Maharashtra", "district": "Nagpur", "subdistrict": "Kamthi", "display_name": "Mine 417 (Kamthi, Nagpur, Maharashtra)" }, "geometry": { "type": "Point", "coordinates": [ 79.117685216500007, 21.2506856989 ] } },
{ "type": "Feature", "properties": { "mine_id": 418, "state": "Maharashtra", "district": "Nagpur", "subdistrict": "Kamthi", "display_name": "Mine 418 (Kamthi, Nagpur, Maharashtra)" }, "geometry": { "type": "Point", "coordinates": [ 79.130072972500002, 21.246323554 ] } },
{ "type": "Feature", "properties": { "mine_id": 419, "state": "Maharashtra", "district": "Chandrapur", "subdistrict": "Rajura", "display_name": "Mine 419 (Rajura, Chandrapur, Maharashtra)" }, "geometry": { "type": "Point", "coordinates": [ 78.859871551, 19.734386376500002 ] } },
{ "type": "Feature", "properties": { "mine_id": 420, "state": "Maharashtra", "district": "Nagpur", "subdistrict": "Parsivni", "display_name": "Mine 420 (Parsivni, Nagpur, Maharashtra)" }, "geometry": { "type": "Point", "coordinates": [ 79.152747, 21.381610333299999 ] } },
{ "type": "Feature", "properties": { "mine_id": 421, "state": "Madhya Pradesh", "district": "Balaghat", "subdistrict": "Waraseoni", "display_name": "Mine 421 (Waraseoni, Balaghat, Madhya Pradesh)" }, "geometry": { "type": "Point", "coordinates": [ 79.611508083700002, 21.671573694700001 ] } },
{ "type": "Feature", "properties": { "mine_id": 422, "state": "Maharashtra", "district": "Nagpur", "subdistrict": "Ramtek", "display_name": "Mine 422 (Ramtek, Nagpur, Maharashtra)" }, "geometry": { "type": "Point", "coordinates": [ 79.354467025, 21.631259753799998 ] } },
{ "type": "Feature", "properties": { "mine_id": 423, "state": "Maharashtra", "district": "Nagpur", "subdistrict": "Ramtek", "display_name": "Mine 423 (Ramtek, Nagpur, Maharashtra)" }, "geometry": { "type": "Point", "coordinates": [ 79.307847183899995, 21.524116740299998 ] } },
{ "type": "Feature", "properties": { "mine_id": 424, "state": "Madhya Pradesh", "district": "Katni", "subdistrict": "Sihora", "display_name": "Mine 424 (Sihora, Katni, Madhya Pradesh)" }, "geometry": { "type": "Point", "coordinates": [ 80.036758005699994, 23.584050957700001 ] } },
{ "type": "Feature", "properties": { "mine_id": 425, "state": "Madhya Pradesh", "district": "Jabalpur", "subdistrict": "Patan", "display_name": "Mine 425 (Patan, Jabalpur, Madhya Pradesh)" }, "geometry": { "type": "Point", "coordinates": [ 79.780111570800003, 23.1273702692 ] } },
{ "type": "Feature", "properties": { "mine_id": 426, "state": "Madhya Pradesh", "district": "Jabalpur", "subdistrict": "Patan", "display_name": "Mine 426 (Patan, Jabalpur, Madhya Pradesh)" }, "geometry": { "type": "Point", "coordinates": [ 79.766351462800003, 23.120339882700002 ] } },
{ "type": "Feature", "properties": { "mine_id": 427, "state": "Madhya Pradesh", "district": "Jabalpur", "subdistrict": "Patan", "display_name": "Mine 427 (Patan, Jabalpur, Madhya Pradesh)" }, "geometry": { "type": "Point", "coordinates": [ 79.757045469100007, 23.117489022400001 ] } },
{ "type": "Feature", "properties": { "mine_id": 428, "state": "Madhya Pradesh", "district": "Jabalpur", "subdistrict": "Jabalpur", "display_name": "Mine 428 (Jabalpur, Jabalpur, Madhya Pradesh)" }, "geometry": { "type": "Point", "coordinates": [ 80.070559067700003, 23.1961442765 ] } },
{ "type": "Feature", "properties": { "mine_id": 429, "state": "Madhya Pradesh", "district": "Jabalpur", "subdistrict": "Jabalpur", "display_name": "Mine 429 (Jabalpur, Jabalpur, Madhya Pradesh)" }, "geometry": { "type": "Point", "coordinates": [ 80.086011277400004, 23.192512132499999 ] } },
{ "type": "Feature", "properties": { "mine_id": 430, "state": "Maharashtra", "district": "Nagpur", "subdistrict": "Bhiwapur", "display_name": "Mine 430 (Bhiwapur, Nagpur, Maharashtra)" }, "geometry": { "type": "Point", "coordinates": [ 79.299734171599994, 20.693167334799998 ] } },
{ "type": "Feature", "properties": { "mine_id": 431, "state": "Maharashtra", "district": "Bhandara", "subdistrict": "Tumsar", "display_name": "Mine 431 (Tumsar, Bhandara, Maharashtra)" }, "geometry": { "type": "Point", "coordinates": [ 79.723497557599998, 21.472923942200001 ] } },
{ "type": "Feature", "properties": { "mine_id": 432, "state": "Madhya Pradesh", "district": "Balaghat", "subdistrict": "Waraseoni", "display_name": "Mine 432 (Waraseoni, Balaghat, Madhya Pradesh)" }, "geometry": { "type": "Point", "coordinates": [ 79.557854063299999, 21.629147401800001 ] } },
{ "type": "Feature", "properties": { "mine_id": 433, "state": "Maharashtra", "district": "Nagpur", "subdistrict": "Ramtek", "display_name": "Mine 433 (Ramtek, Nagpur, Maharashtra)" }, "geometry": { "type": "Point", "coordinates": [ 79.450033549500006, 21.6554264862 ] } },
{ "type": "Feature", "properties": { "mine_id": 434, "state": "Maharashtra", "district": "Nagpur", "subdistrict": "Ramtek", "display_name": "Mine 434 (Ramtek, Nagpur, Maharashtra)" }, "geometry": { "type": "Point", "coordinates": [ 79.452723339, 21.657437606 ] } },
{ "type": "Feature", "properties": { "mine_id": 435, "state": "Madhya Pradesh", "district": "Balaghat", "subdistrict": "Waraseoni", "display_name": "Mine 435 (Waraseoni, Balaghat, Madhya Pradesh)" }, "geometry": { "type": "Point", "coordinates": [ 79.813988120499999, 21.749807667100001 ] } },
{ "type": "Feature", "properties": { "mine_id": 436, "state": "Madhya Pradesh", "district": "Balaghat", "subdistrict": "Waraseoni", "display_name": "Mine 436 (Waraseoni, Balaghat, Madhya Pradesh)" }, "geometry": { "type": "Point", "coordinates": [ 79.7715748273, 21.6851050585 ] } },
{ "type": "Feature", "properties": { "mine_id": 437, "state": "Maharashtra", "district": "Nagpur", "subdistrict": "Parsivni", "display_name": "Mine 437 (Parsivni, Nagpur, Maharashtra)" }, "geometry": { "type": "Point", "coordinates": [ 79.265626944600001, 21.3418970685 ] } },
{ "type": "Feature", "properties": { "mine_id": 438, "state": "Maharashtra", "district": "Nagpur", "subdistrict": "Hingana", "display_name": "Mine 438 (Hingana, Nagpur, Maharashtra)" }, "geometry": { "type": "Point", "coordinates": [ 79.036500694099999, 21.21702732 ] } },
{ "type": "Feature", "properties": { "mine_id": 439, "state": "Maharashtra", "district": "Nagpur", "subdistrict": "Hingana", "display_name": "Mine 439 (Hingana, Nagpur, Maharashtra)" }, "geometry": { "type": "Point", "coordinates": [ 79.033180181099993, 21.218155050699998 ] } },
{ "type": "Feature", "properties": { "mine_id": 440, "state": "Madhya Pradesh", "district": "Rewa", "subdistrict": "Rewa", "display_name": "Mine 440 (Rewa, Rewa, Madhya Pradesh)" }, "geometry": { "type": "Point", "coordinates": [ 81.188650296700004, 24.6073081529 ] } },
{ "type": "Feature", "properties": { "mine_id": 441, "state": "Madhya Pradesh", "district": "Rewa", "subdistrict": "Sirmaur", "display_name": "Mine 441 (Sirmaur, Rewa, Madhya Pradesh)" }, "geometry": { "type": "Point", "coordinates": [ 81.121780019300004, 24.8589605636 ] } },
{ "type": "Feature", "properties": { "mine_id": 442, "state": "Madhya Pradesh", "district": "Panna", "subdistrict": "Panna", "display_name": "Mine 442 (Panna, Panna, Madhya Pradesh)" }, "geometry": { "type": "Point", "coordinates": [ 80.430220529699994, 24.440480194599999 ] } },
{ "type": "Feature", "properties": { "mine_id": 443, "state": "Madhya Pradesh", "district": "Satna", "subdistrict": "Amarpatan", "display_name": "Mine 443 (Amarpatan, Satna, Madhya Pradesh)" }, "geometry": { "type": "Point", "coordinates": [ 81.281004565700002, 24.303740365100001 ] } },
{ "type": "Feature", "properties": { "mine_id": 444, "state": "Madhya Pradesh", "district": "Jabalpur", "subdistrict": "Jabalpur", "display_name": "Mine 444 (Jabalpur, Jabalpur, Madhya Pradesh)" }, "geometry": { "type": "Point", "coordinates": [ 80.387605193200002, 23.336598798499999 ] } },
{ "type": "Feature", "properties": { "mine_id": 445, "state": "Chhattisgarh", "district": "Rajnandgaon", "subdistrict": "Raj Nandgaon", "display_name": "Mine 445 (Raj Nandgaon, Rajnandgaon, Chhattisgarh)" }, "geometry": { "type": "Point", "coordinates": [ 80.891034360700004, 20.484333607100002 ] } },
{ "type": "Feature", "properties": { "mine_id": 446, "state": "Madhya Pradesh", "district": "Katni", "subdistrict": "Sihora", "display_name": "Mine 446 (Sihora, Katni, Madhya Pradesh)" }, "geometry": { "type": "Point", "coordinates": [ 80.146540180399995, 23.582588102700001 ] } },
{ "type": "Feature", "properties": { "mine_id": 447, "state": "Madhya Pradesh", "district": "Katni", "subdistrict": "Sihora", "display_name": "Mine 447 (Sihora, Katni, Madhya Pradesh)" }, "geometry": { "type": "Point", "coordinates": [ 80.172309978800001, 23.370980749299999 ] } },
{ "type": "Feature", "properties": { "mine_id": 448, "state": "Madhya Pradesh", "district": "Jabalpur", "subdistrict": "Patan", "display_name": "Mine 448 (Patan, Jabalpur, Madhya Pradesh)" }, "geometry": { "type": "Point", "coordinates": [ 79.785966136100001, 23.100404514699999 ] } },
{ "type": "Feature", "properties": { "mine_id": 449, "state": "Madhya Pradesh", "district": "Shahdol", "subdistrict": "Shahdol", "display_name": "Mine 449 (Shahdol, Shahdol, Madhya Pradesh)" }, "geometry": { "type": "Point", "coordinates": [ 81.5669629609, 23.180998146899999 ] } },
{ "type": "Feature", "properties": { "mine_id": 450, "state": "Madhya Pradesh", "district": "Rewa", "subdistrict": "Sirmaur", "display_name": "Mine 450 (Sirmaur, Rewa, Madhya Pradesh)" }, "geometry": { "type": "Point", "coordinates": [ 81.154582485199995, 24.8656338706 ] } },
{ "type": "Feature", "properties": { "mine_id": 451, "state": "Chhattisgarh", "district": "Rajnandgaon", "subdistrict": "Raj Nandgaon", "display_name": "Mine 451 (Raj Nandgaon, Rajnandgaon, Chhattisgarh)" }, "geometry": { "type": "Point", "coordinates": [ 80.905571433, 20.483847135600001 ] } },
{ "type": "Feature", "properties": { "mine_id": 452, "state": "Madhya Pradesh", "district": "Chhindwara", "subdistrict": "Parasia", "display_name": "Mine 452 (Parasia, Chhindwara, Madhya Pradesh)" }, "geometry": { "type": "Point", "coordinates": [ 78.500522731800004, 22.1915992136 ] } },
{ "type": "Feature", "properties": { "mine_id": 453, "state": "Chhattisgarh", "district": "Rajnandgaon", "subdistrict": "Raj Nandgaon", "display_name": "Mine 453 (Raj Nandgaon, Rajnandgaon, Chhattisgarh)" }, "geometry": { "type": "Point", "coordinates": [ 80.928266110600006, 20.4540592874 ] } },
{ "type": "Feature", "properties": { "mine_id": 454, "state": "Madhya Pradesh", "district": "Satna", "subdistrict": "Maihar", "display_name": "Mine 454 (Maihar, Satna, Madhya Pradesh)" }, "geometry": { "type": "Point", "coordinates": [ 80.878063670299994, 24.3028180809 ] } },
{ "type": "Feature", "properties": { "mine_id": 455, "state": "Madhya Pradesh", "district": "Chhindwara", "subdistrict": "Parasia", "display_name": "Mine 455 (Parasia, Chhindwara, Madhya Pradesh)" }, "geometry": { "type": "Point", "coordinates": [ 78.846794751100006, 22.2151550291 ] } },
{ "type": "Feature", "properties": { "mine_id": 456, "state": "Maharashtra", "district": "Wardha", "subdistrict": "Arvi", "display_name": "Mine 456 (Arvi, Wardha, Maharashtra)" }, "geometry": { "type": "Point", "coordinates": [ 78.305255690400003, 21.002454677700001 ] } },
{ "type": "Feature", "properties": { "mine_id": 457, "state": "Maharashtra", "district": "Nagpur", "subdistrict": "Parsivni", "display_name": "Mine 457 (Parsivni, Nagpur, Maharashtra)" }, "geometry": { "type": "Point", "coordinates": [ 79.165520338500002, 21.376958734500001 ] } },
{ "type": "Feature", "properties": { "mine_id": 458, "state": "Madhya Pradesh", "district": "Vidisha", "subdistrict": "Korwai", "display_name": "Mine 458 (Korwai, Vidisha, Madhya Pradesh)" }, "geometry": { "type": "Point", "coordinates": [ 78.080557304799996, 24.183733354 ] } },
{ "type": "Feature", "properties": { "mine_id": 459, "state": "Maharashtra", "district": "Nagpur", "subdistrict": "Umred", "display_name": "Mine 459 (Umred, Nagpur, Maharashtra)" }, "geometry": { "type": "Point", "coordinates": [ 79.233642270600001, 20.9498137484 ] } },
{ "type": "Feature", "properties": { "mine_id": 460, "state": "Maharashtra", "district": "Nagpur", "subdistrict": "Parsivni", "display_name": "Mine 460 (Parsivni, Nagpur, Maharashtra)" }, "geometry": { "type": "Point", "coordinates": [ 79.273999079700005, 21.333156463800002 ] } },
{ "type": "Feature", "properties": { "mine_id": 461, "state": "Madhya Pradesh", "district": "Satna", "subdistrict": "Maihar", "display_name": "Mine 461 (Maihar, Satna, Madhya Pradesh)" }, "geometry": { "type": "Point", "coordinates": [ 80.910637622699994, 24.278746932800001 ] } },
{ "type": "Feature", "properties": { "mine_id": 462, "state": "Maharashtra", "district": "Wardha", "subdistrict": "Arvi", "display_name": "Mine 462 (Arvi, Wardha, Maharashtra)" }, "geometry": { "type": "Point", "coordinates": [ 78.192135838, 21.101870546 ] } },
{ "type": "Feature", "properties": { "mine_id": 463, "state": "Madhya Pradesh", "district": "Chhindwara", "subdistrict": "Parasia", "display_name": "Mine 463 (Parasia, Chhindwara, Madhya Pradesh)" }, "geometry": { "type": "Point", "coordinates": [ 78.558024794399998, 22.2099188599 ] } },
{ "type": "Feature", "properties": { "mine_id": 464, "state": "Madhya Pradesh", "district": "Chhindwara", "subdistrict": "Parasia", "display_name": "Mine 464 (Parasia, Chhindwara, Madhya Pradesh)" }, "geometry": { "type": "Point", "coordinates": [ 78.5691477341, 22.195806435 ] } },
{ "type": "Feature", "properties": { "mine_id": 465, "state": "Madhya Pradesh", "district": "Chhindwara", "subdistrict": "Parasia", "display_name": "Mine 465 (Parasia, Chhindwara, Madhya Pradesh)" }, "geometry": { "type": "Point", "coordinates": [ 78.529941311, 22.1997097235 ] } },
{ "type": "Feature", "properties": { "mine_id": 466, "state": "Maharashtra", "district": "Amravati", "subdistrict": "Tivsa", "display_name": "Mine 466 (Tivsa, Amravati, Maharashtra)" }, "geometry": { "type": "Point", "coordinates": [ 78.182944855499997, 20.901659782700001 ] } },
{ "type": "Feature", "properties": { "mine_id": 467, "state": "Madhya Pradesh", "district": "Hoshangabad", "subdistrict": "Seonimalwa", "display_name": "Mine 467 (Seonimalwa, Hoshangabad, Madhya Pradesh)" }, "geometry": { "type": "Point", "coordinates": [ 77.591277240899998, 22.419413132100001 ] } },
{ "type": "Feature", "properties": { "mine_id": 468, "state": "Madhya Pradesh", "district": "Chhindwara", "subdistrict": "Parasia", "display_name": "Mine 468 (Parasia, Chhindwara, Madhya Pradesh)" }, "geometry": { "type": "Point", "coordinates": [ 78.866597461, 22.201977713600002 ] } },
{ "type": "Feature", "properties": { "mine_id": 469, "state": "Madhya Pradesh", "district": "Chhindwara", "subdistrict": "Parasia", "display_name": "Mine 469 (Parasia, Chhindwara, Madhya Pradesh)" }, "geometry": { "type": "Point", "coordinates": [ 78.861074268699994, 22.199699916299998 ] } },
{ "type": "Feature", "properties": { "mine_id": 470, "state": "Madhya Pradesh", "district": "Chhindwara", "subdistrict": "Parasia", "display_name": "Mine 470 (Parasia, Chhindwara, Madhya Pradesh)" }, "geometry": { "type": "Point", "coordinates": [ 78.754924698400004, 22.196342552600001 ] } },
{ "type": "Feature", "properties": { "mine_id": 471, "state": "Madhya Pradesh", "district": "Chhindwara", "subdistrict": "Parasia", "display_name": "Mine 471 (Parasia, Chhindwara, Madhya Pradesh)" }, "geometry": { "type": "Point", "coordinates": [ 78.681480133199997, 22.197705619400001 ] } },
{ "type": "Feature", "properties": { "mine_id": 472, "state": "Madhya Pradesh", "district": "Chhindwara", "subdistrict": "Parasia", "display_name": "Mine 472 (Parasia, Chhindwara, Madhya Pradesh)" }, "geometry": { "type": "Point", "coordinates": [ 78.689222128099999, 22.174174006699999 ] } },
{ "type": "Feature", "properties": { "mine_id": 473, "state": "Maharashtra", "district": "Wardha", "subdistrict": "Arvi", "display_name": "Mine 473 (Arvi, Wardha, Maharashtra)" }, "geometry": { "type": "Point", "coordinates": [ 78.303886441700001, 20.999983461500001 ] } },
{ "type": "Feature", "properties": { "mine_id": 474, "state": "Madhya Pradesh", "district": "Chhindwara", "subdistrict": "Sausar", "display_name": "Mine 474 (Sausar, Chhindwara, Madhya Pradesh)" }, "geometry": { "type": "Point", "coordinates": [ 78.810656781700004, 21.525505537899999 ] } },
{ "type": "Feature", "properties": { "mine_id": 475, "state": "Chhattisgarh", "district": "Bilaspur", "subdistrict": "Bilaspur", "display_name": "Mine 475 (Bilaspur, Bilaspur, Chhattisgarh)" }, "geometry": { "type": "Point", "coordinates": [ 82.070560453200002, 21.967516357400001 ] } },
{ "type": "Feature", "properties": { "mine_id": 476, "state": "Madhya Pradesh", "district": "Balaghat", "subdistrict": "Waraseoni", "display_name": "Mine 476 (Waraseoni, Balaghat, Madhya Pradesh)" }, "geometry": { "type": "Point", "coordinates": [ 80.018606857099996, 21.853694397200002 ] } },
{ "type": "Feature", "properties": { "mine_id": 477, "state": "Madhya Pradesh", "district": "Sagar", "subdistrict": "Khurai", "display_name": "Mine 477 (Khurai, Sagar, Madhya Pradesh)" }, "geometry": { "type": "Point", "coordinates": [ 78.197430717, 24.247045196199998 ] } },
{ "type": "Feature", "properties": { "mine_id": 478, "state": "Madhya Pradesh", "district": "Sagar", "subdistrict": "Khurai", "display_name": "Mine 478 (Khurai, Sagar, Madhya Pradesh)" }, "geometry": { "type": "Point", "coordinates": [ 78.189529593800003, 24.2473868252 ] } },
{ "type": "Feature", "properties": { "mine_id": 479, "state": "Madhya Pradesh", "district": "Vidisha", "subdistrict": "Korwai", "display_name": "Mine 479 (Korwai, Vidisha, Madhya Pradesh)" }, "geometry": { "type": "Point", "coordinates": [ 78.091193491, 24.1826309948 ] } },
{ "type": "Feature", "properties": { "mine_id": 480, "state": "Madhya Pradesh", "district": "Vidisha", "subdistrict": "Korwai", "display_name": "Mine 480 (Korwai, Vidisha, Madhya Pradesh)" }, "geometry": { "type": "Point", "coordinates": [ 77.987657303199995, 24.136160869 ] } },
{ "type": "Feature", "properties": { "mine_id": 481, "state": "Madhya Pradesh", "district": "Vidisha", "subdistrict": "Korwai", "display_name": "Mine 481 (Korwai, Vidisha, Madhya Pradesh)" }, "geometry": { "type": "Point", "coordinates": [ 78.056480928300005, 24.040272224100001 ] } },
{ "type": "Feature", "properties": { "mine_id": 482, "state": "Madhya Pradesh", "district": "Vidisha", "subdistrict": "Korwai", "display_name": "Mine 482 (Korwai, Vidisha, Madhya Pradesh)" }, "geometry": { "type": "Point", "coordinates": [ 78.053249954, 24.036183235599999 ] } },
{ "type": "Feature", "properties": { "mine_id": 483, "state": "Madhya Pradesh", "district": "Katni", "subdistrict": "Sihora", "display_name": "Mine 483 (Sihora, Katni, Madhya Pradesh)" }, "geometry": { "type": "Point", "coordinates": [ 80.044201931100005, 23.369465261199998 ] } },
{ "type": "Feature", "properties": { "mine_id": 484, "state": "Madhya Pradesh", "district": "Sehore", "subdistrict": "Ashta", "display_name": "Mine 484 (Ashta, Sehore, Madhya Pradesh)" }, "geometry": { "type": "Point", "coordinates": [ 76.477129502599993, 23.047624238099999 ] } },
{ "type": "Feature", "properties": { "mine_id": 485, "state": "Maharashtra", "district": "Chandrapur", "subdistrict": "Chimur", "display_name": "Mine 485 (Chimur, Chandrapur, Maharashtra)" }, "geometry": { "type": "Point", "coordinates": [ 79.298426920300003, 20.543812305100001 ] } },
{ "type": "Feature", "properties": { "mine_id": 486, "state": "Madhya Pradesh", "district": "Singrauli", "subdistrict": "Devsar", "display_name": "Mine 486 (Devsar, Singrauli, Madhya Pradesh)" }, "geometry": { "type": "Point", "coordinates": [ 81.997785547099994, 24.086839515200001 ] } },
{ "type": "Feature", "properties": { "mine_id": 487, "state": "Madhya Pradesh", "district": "Singrauli", "subdistrict": "Devsar", "display_name": "Mine 487 (Devsar, Singrauli, Madhya Pradesh)" }, "geometry": { "type": "Point", "coordinates": [ 81.998523130300001, 24.112867236100001 ] } },
{ "type": "Feature", "properties": { "mine_id": 488, "state": "Madhya Pradesh", "district": "Satna", "subdistrict": "Maihar", "display_name": "Mine 488 (Maihar, Satna, Madhya Pradesh)" }, "geometry": { "type": "Point", "coordinates": [ 80.819410962500001, 24.260786064400001 ] } },
{ "type": "Feature", "properties": { "mine_id": 489, "state": "Chhattisgarh", "district": "Rajnandgaon", "subdistrict": "Raj Nandgaon", "display_name": "Mine 489 (Raj Nandgaon, Rajnandgaon, Chhattisgarh)" }, "geometry": { "type": "Point", "coordinates": [ 81.159123860700007, 21.183836653499998 ] } },
{ "type": "Feature", "properties": { "mine_id": 490, "state": "Chhattisgarh", "district": "Rajnandgaon", "subdistrict": "Khairagarh", "display_name": "Mine 490 (Khairagarh, Rajnandgaon, Chhattisgarh)" }, "geometry": { "type": "Point", "coordinates": [ 80.961742832, 21.338176404 ] } },
{ "type": "Feature", "properties": { "mine_id": 491, "state": "Maharashtra", "district": "Nagpur", "subdistrict": "Hingana", "display_name": "Mine 491 (Hingana, Nagpur, Maharashtra)" }, "geometry": { "type": "Point", "coordinates": [ 78.881012880300005, 21.0771419352 ] } },
{ "type": "Feature", "properties": { "mine_id": 492, "state": "Madhya Pradesh", "district": "Chhindwara", "subdistrict": "Parasia", "display_name": "Mine 492 (Parasia, Chhindwara, Madhya Pradesh)" }, "geometry": { "type": "Point", "coordinates": [ 78.677902444, 22.190054058 ] } },
{ "type": "Feature", "properties": { "mine_id": 493, "state": "Madhya Pradesh", "district": "Satna", "subdistrict": "Maihar", "display_name": "Mine 493 (Maihar, Satna, Madhya Pradesh)" }, "geometry": { "type": "Point", "coordinates": [ 80.852152677099994, 24.1717815831 ] } },
{ "type": "Feature", "properties": { "mine_id": 494, "state": "Madhya Pradesh", "district": "Satna", "subdistrict": "Satna", "display_name": "Mine 494 (Satna, Satna, Madhya Pradesh)" }, "geometry": { "type": "Point", "coordinates": [ 80.970529202500003, 24.616141253199999 ] } },
{ "type": "Feature", "properties": { "mine_id": 495, "state": "Madhya Pradesh", "district": "Satna", "subdistrict": "Maihar", "display_name": "Mine 495 (Maihar, Satna, Madhya Pradesh)" }, "geometry": { "type": "Point", "coordinates": [ 80.878837417900002, 24.292813819900001 ] } },
{ "type": "Feature", "properties": { "mine_id": 496, "state": "Madhya Pradesh", "district": "Sagar", "subdistrict": "Khurai", "display_name": "Mine 496 (Khurai, Sagar, Madhya Pradesh)" }, "geometry": { "type": "Point", "coordinates": [ 78.191725885300002, 24.249263473599999 ] } },
{ "type": "Feature", "properties": { "mine_id": 497, "state": "Madhya Pradesh", "district": "Vidisha", "subdistrict": "Korwai", "display_name": "Mine 497 (Korwai, Vidisha, Madhya Pradesh)" }, "geometry": { "type": "Point", "coordinates": [ 78.025861665500003, 24.1538717271 ] } },
{ "type": "Feature", "properties": { "mine_id": 498, "state": "Madhya Pradesh", "district": "Vidisha", "subdistrict": "Korwai", "display_name": "Mine 498 (Korwai, Vidisha, Madhya Pradesh)" }, "geometry": { "type": "Point", "coordinates": [ 78.015511150600005, 24.1293554849 ] } },
{ "type": "Feature", "properties": { "mine_id": 499, "state": "Madhya Pradesh", "district": "Vidisha", "subdistrict": "Korwai", "display_name": "Mine 499 (Korwai, Vidisha, Madhya Pradesh)" }, "geometry": { "type": "Point", "coordinates": [ 78.001482673400005, 24.094199420399999 ] } },
{ "type": "Feature", "properties": { "mine_id": 500, "state": "Madhya Pradesh", "district": "Vidisha", "subdistrict": "Korwai", "display_name": "Mine 500 (Korwai, Vidisha, Madhya Pradesh)" }, "geometry": { "type": "Point", "coordinates": [ 78.057427190200002, 24.035215340499999 ] } },
{ "type": "Feature", "properties": { "mine_id": 501, "state": "Madhya Pradesh", "district": "East Nimar", "subdistrict": "Khandwa", "display_name": "Mine 501 (Khandwa, East Nimar, Madhya Pradesh)" }, "geometry": { "type": "Point", "coordinates": [ 76.536213923, 22.102851892299999 ] } },
{ "type": "Feature", "properties": { "mine_id": 502, "state": "Madhya Pradesh", "district": "Satna", "subdistrict": "Maihar", "display_name": "Mine 502 (Maihar, Satna, Madhya Pradesh)" }, "geometry": { "type": "Point", "coordinates": [ 80.766913398499995, 24.1328519863 ] } },
{ "type": "Feature", "properties": { "mine_id": 503, "state": "Madhya Pradesh", "district": "Balaghat", "subdistrict": "Baihar", "display_name": "Mine 503 (Baihar, Balaghat, Madhya Pradesh)" }, "geometry": { "type": "Point", "coordinates": [ 80.716290413799996, 22.020624756 ] } },
{ "type": "Feature", "properties": { "mine_id": 504, "state": "Madhya Pradesh", "district": "Katni", "subdistrict": "Sihora", "display_name": "Mine 504 (Sihora, Katni, Madhya Pradesh)" }, "geometry": { "type": "Point", "coordinates": [ 80.166034937899994, 23.378673479100001 ] } },
{ "type": "Feature", "properties": { "mine_id": 505, "state": "Madhya Pradesh", "district": "Vidisha", "subdistrict": "Korwai", "display_name": "Mine 505 (Korwai, Vidisha, Madhya Pradesh)" }, "geometry": { "type": "Point", "coordinates": [ 78.048850579700002, 24.0437167738 ] } }
]
}
